stop_id,stop_code,stop_name,tts_stop_name,stop_desc,stop_lat,stop_lon,zone_id,stop_url,location_type,parent_station,stop_timezone,wheelchair_boarding,level_id,platform_code
ES:Euskotren:Place:2576_Vestibulo_H1:,,Atondoa,,San Jose de Lutxana Auzoa / Erandio,43.29135,-2.969773,ES:Euskotren:Zone:2:,,3,ES:Euskotren:StopPlace:2576:,,1,ES:Euskotren:Level:Level:0:,
ES:Euskotren:Place:2577_Vestibulo_D1:,,Atondoa,,Plazuela de San Nicolás / Bilbao,43.260025,-2.922042,ES:Euskotren:Zone:3:,,3,ES:Euskotren:StopPlace:2577:,,1,ES:Euskotren:Level:Level:0:,
ES:Euskotren:Place:2577_Vestibulo_D2:,,Atondoa,,Plazuela de San Nicolás / Bilbao,43.260025,-2.922042,ES:Euskotren:Zone:3:,,3,ES:Euskotren:StopPlace:2577:,,2,ES:Euskotren:Level:Level:0:,
ES:Euskotren:Place:2577_Vestibulo_H1:,,Atondoa,,Plazuela de San Nicolás / Bilbao,43.26,-2.922112,ES:Euskotren:Zone:3:,,3,ES:Euskotren:StopPlace:2577:,,1,ES:Euskotren:Level:Level:0:,
ES:Euskotren:Place:2579_Vestibulo_D1:,,Atondoa,,"Santamañe Kalea, s/n bajo / Bermeo",43.417771,-2.723233,ES:Euskotren:Zone:8:,,3,ES:Euskotren:StopPlace:2579:,,1,ES:Euskotren:Level:Level:Minus1:,
ES:Euskotren:Place:2579_Vestibulo_H1:,,Atondoa,,"Santamañe Kalea, s/n bajo / Bermeo",43.417771,-2.723233,ES:Euskotren:Zone:8:,,3,ES:Euskotren:StopPlace:2579:,,1,ES:Euskotren:Level:Level:Minus1:,
ES:Euskotren:Place:2580_Vestibulo_D1:,,Atondoa,,"Avd. Donostia, 1 bajo / Lasarte-Oria",43.270648,-2.020128,ES:Euskotren:Zone:42:,,3,ES:Euskotren:StopPlace:2580:,,1,ES:Euskotren:Level:Level:0:,
ES:Euskotren:Place:2580_Vestibulo_H1:,,Atondoa,,"Avd. Donostia, 1 bajo / Lasarte-Oria",43.270648,-2.020128,ES:Euskotren:Zone:42:,,3,ES:Euskotren:StopPlace:2580:,,1,ES:Euskotren:Level:Level:0:,
ES:Euskotren:Place:2581_Area_A1:,,Kanpoaldeko atondoa,,"Plaza Easo, 9 / Donostia-San Sebastián",43.312861,-1.981479,ES:Euskotren:Zone:42:,,3,ES:Euskotren:StopPlace:2581:,,1,ES:Euskotren:Level:Level:0:,
ES:Euskotren:Place:2581_Area_A2:,,Komisaldegi ondoko atondoa,,"Plaza Easo, 9 / Donostia-San Sebastián",43.312861,-1.981479,ES:Euskotren:Zone:42:,,3,ES:Euskotren:StopPlace:2581:,,1,ES:Euskotren:Level:Level:0:,
ES:Euskotren:Place:2581_Area_A3:,,Kantzelagailuen osteko atondoa,,"Plaza Easo, 9 / Donostia-San Sebastián",43.312861,-1.981479,ES:Euskotren:Zone:42:,,3,ES:Euskotren:StopPlace:2581:,,1,ES:Euskotren:Level:Level:0:,
ES:Euskotren:Place:2581_Vestibulo_H1:,,Atondoa,,"Plaza Easo, 9 / Donostia-San Sebastián",43.312861,-1.981479,ES:Euskotren:Zone:42:,,3,ES:Euskotren:StopPlace:2581:,,1,ES:Euskotren:Level:Level:0:,
ES:Euskotren:Place:2582_Vestibulo_D1:,,Atondoa,,"Boulevard de Gaulle, s/n / Hendaia",43.352453,-1.782226,ES:Euskotren:Zone:43:,,3,ES:Euskotren:StopPlace:2582:,,1,ES:Euskotren:Level:Level:0:,
ES:Euskotren:Place:2582_Vestibulo_H1:,,Atondoa,,"Boulevard de Gaulle, s/n / Hendaia",43.352453,-1.782226,ES:Euskotren:Zone:43:,,3,ES:Euskotren:StopPlace:2582:,,1,ES:Euskotren:Level:Level:0:,
ES:Euskotren:Place:2584_Vestibulo_D1:,,Atondoa,,"Calle de María Etxetxiki, 89-91 / Zarautz",43.28367,-2.160177,ES:Euskotren:Zone:41:,,3,ES:Euskotren:StopPlace:2584:,,1,ES:Euskotren:Level:Level:Minus1:,
ES:Euskotren:Place:2584_Vestibulo_H1:,,Atondoa,,"Calle de María Etxetxiki, 89-91 / Zarautz",43.28367,-2.160177,ES:Euskotren:Zone:41:,,3,ES:Euskotren:StopPlace:2584:,,1,ES:Euskotren:Level:Level:Minus1:,
ES:Euskotren:Place:2585_Vestibulo_D1:,,Atondoa,,"San Martin Bidea, 1 / Sondika",43.291855,-2.925258,ES:Euskotren:Zone:2:,,3,ES:Euskotren:StopPlace:2585:,,1,ES:Euskotren:Level:Level:0:,
ES:Euskotren:Place:2585_Vestibulo_H1:,,Atondoa,,"San Martin Bidea, 1 / Sondika",43.291828,-2.925175,ES:Euskotren:Zone:2:,,3,ES:Euskotren:StopPlace:2585:,,1,ES:Euskotren:Level:Level:0:,
ES:Euskotren:Place:2586_Vestibulo_D1:,,Atondoa,,"Calle Txiki Otaegi, 5 / Amorebieta-Etxano",43.221786,-2.734986,ES:Euskotren:Zone:6:,,3,ES:Euskotren:StopPlace:2586:,,1,ES:Euskotren:Level:Level:0:,
ES:Euskotren:Place:2586_Vestibulo_H1:,,Atondoa,,"Calle Txiki Otaegi, 5 / Amorebieta-Etxano",43.221786,-2.734986,ES:Euskotren:Zone:6:,,3,ES:Euskotren:StopPlace:2586:,,1,ES:Euskotren:Level:Level:0:,
ES:Euskotren:Place:2587_Area_A1:,,Area 1,,"Calle de la Estación, 10 / Lemoa",43.207092,-2.775247,ES:Euskotren:Zone:6:,,3,ES:Euskotren:StopPlace:2587:,,1,ES:Euskotren:Level:Level:1:,
ES:Euskotren:Place:2587_Area_A2:,,Area 2,,"Calle de la Estación, 10 / Lemoa",43.207092,-2.775247,ES:Euskotren:Zone:6:,,3,ES:Euskotren:StopPlace:2587:,,1,ES:Euskotren:Level:Level:1:,
ES:Euskotren:Place:2587_Vestibulo_D1:,,Atondoa,,"Calle de la Estación, 10 / Lemoa",43.207165,-2.775422,ES:Euskotren:Zone:6:,,3,ES:Euskotren:StopPlace:2587:,,1,ES:Euskotren:Level:Level:0:,
ES:Euskotren:Place:2587_Vestibulo_H1:,,Atondoa,,"Calle de la Estación, 10 / Lemoa",43.207165,-2.775422,ES:Euskotren:Zone:6:,,3,ES:Euskotren:StopPlace:2587:,,1,ES:Euskotren:Level:Level:0:,
ES:Euskotren:Place:2589_Area_A1:,,Area 1,,"Paseo de Colón, 25 / Irun",43.341206,-1.796039,ES:Euskotren:Zone:43:,,3,ES:Euskotren:StopPlace:2589:,,2,ES:Euskotren:Level:Level:0:,
ES:Euskotren:Place:2589_Area_A2:,,Area 2,,"Paseo de Colón, 25 / Irun",43.341206,-1.796039,ES:Euskotren:Zone:43:,,3,ES:Euskotren:StopPlace:2589:,,1,ES:Euskotren:Level:Level:Minus1:,
ES:Euskotren:Place:2589_Area_A3:,,Area 3,,"Paseo de Colón, 25 / Irun",43.341206,-1.796039,ES:Euskotren:Zone:43:,,3,ES:Euskotren:StopPlace:2589:,,1,ES:Euskotren:Level:Level:Minus1:,
ES:Euskotren:Place:2589_Vestibulo_D1:,,Atondo Nagusia,,"Paseo de Colón, 25 / Irun",43.341206,-1.796039,ES:Euskotren:Zone:43:,,3,ES:Euskotren:StopPlace:2589:,,1,ES:Euskotren:Level:Level:0:,
ES:Euskotren:Place:2589_Vestibulo_D2:,,Atondo Nagusia,,"Paseo de Colón, 25 / Irun",43.341206,-1.796039,ES:Euskotren:Zone:43:,,3,ES:Euskotren:StopPlace:2589:,,1,ES:Euskotren:Level:Level:0:,
ES:Euskotren:Place:2589_Vestibulo_D3:,,Atondoa,,"Paseo de Colón, 25 / Irun",43.341206,-1.796039,ES:Euskotren:Zone:43:,,3,ES:Euskotren:StopPlace:2589:,,1,ES:Euskotren:Level:Level:Minus1:,
ES:Euskotren:Place:2589_Vestibulo_H1:,,Atondo Nagusia,,"Paseo de Colón, 25 / Irun",43.341206,-1.796039,ES:Euskotren:Zone:43:,,3,ES:Euskotren:StopPlace:2589:,,1,ES:Euskotren:Level:Level:0:,
ES:Euskotren:Place:2589_Vestibulo_H2:,,Atondoa,,"Paseo de Colón, 25 / Irun",43.341206,-1.796039,ES:Euskotren:Zone:43:,,3,ES:Euskotren:StopPlace:2589:,,1,ES:Euskotren:Level:Level:0:,
ES:Euskotren:Place:2589_Vestibulo_H3:,,Atondoa,,"Paseo de Colón, 25 / Irun",43.341206,-1.796039,ES:Euskotren:Zone:43:,,3,ES:Euskotren:StopPlace:2589:,,1,ES:Euskotren:Level:Level:Minus1:,
ES:Euskotren:Place:2590_Vestibulo_D1:,,Atondoa,,"Paseo de Anoeta, 32 / Donostia-San Sebastián",43.302049,-1.975286,ES:Euskotren:Zone:42:,,3,ES:Euskotren:StopPlace:2590:,,1,ES:Euskotren:Level:Level:0:,
ES:Euskotren:Place:2590_Vestibulo_H1:,,Atondoa,,"Paseo de Anoeta, 32 / Donostia-San Sebastián",43.302049,-1.975286,ES:Euskotren:Zone:42:,,3,ES:Euskotren:StopPlace:2590:,,1,ES:Euskotren:Level:Level:0:,
ES:Euskotren:Place:2591_Vestibulo_D1:,,Atondoa,,"Calle de Santa Ana, 10 / Etxebarri",43.245559,-2.89103,ES:Euskotren:Zone:4:,,3,ES:Euskotren:StopPlace:2591:,,1,ES:Euskotren:Level:Level:0:,
ES:Euskotren:Place:2591_Vestibulo_H1:,,Atondoa,,"Calle de Santa Ana, 10 / Etxebarri",43.245559,-2.89103,ES:Euskotren:Zone:4:,,3,ES:Euskotren:StopPlace:2591:,,1,ES:Euskotren:Level:Level:0:,
ES:Euskotren:Place:2592_Area_A1:,,Area 1,,"Olazkoegia auzoa, 64, bajo / Aia",43.274229,-2.125837,ES:Euskotren:Zone:41:,,3,ES:Euskotren:StopPlace:2592:,,1,ES:Euskotren:Level:Level:0:,
ES:Euskotren:Place:2592_Area_A2:,,Area 2,,"Olazkoegia auzoa, 64, bajo / Aia",43.274229,-2.125837,ES:Euskotren:Zone:41:,,3,ES:Euskotren:StopPlace:2592:,,1,ES:Euskotren:Level:Level:0:,
ES:Euskotren:Place:2592_Vestibulo_D2:,,Atondoa,,"Olazkoegia auzoa, 64, bajo / Aia",43.274229,-2.125837,ES:Euskotren:Zone:41:,,3,ES:Euskotren:StopPlace:2592:,,1,ES:Euskotren:Level:Level:1:,
ES:Euskotren:Place:2592_Vestibulo_H1:,,Atondoa,,"Olazkoegia auzoa, 64, bajo / Aia",43.274229,-2.125837,ES:Euskotren:Zone:41:,,3,ES:Euskotren:StopPlace:2592:,,1,ES:Euskotren:Level:Level:0:,
ES:Euskotren:Place:2592_Vestibulo_H2:,,Atondoa,,"Olazkoegia auzoa, 64, bajo / Aia",43.274229,-2.125837,ES:Euskotren:Zone:41:,,3,ES:Euskotren:StopPlace:2592:,,1,ES:Euskotren:Level:Level:1:,
ES:Euskotren:Place:2594_Area_A1:,,Area 1,,"Av de Otaola, 24B / Eibar",43.180662,-2.487442,ES:Euskotren:Zone:40:,,3,ES:Euskotren:StopPlace:2594:,,2,ES:Euskotren:Level:Level:1:,
ES:Euskotren:Place:2595_Vestibulo_D1:,,Atondoa,,"Mintxine bidea, 4 / Sondika",43.298294,-2.927772,ES:Euskotren:Zone:2:,,3,ES:Euskotren:StopPlace:2595:,,1,ES:Euskotren:Level:Level:0:,
ES:Euskotren:Place:2595_Vestibulo_H1:,,Atondoa,,"Mintxine bidea, 4 / Sondika",43.298311,-2.927681,ES:Euskotren:Zone:2:,,3,ES:Euskotren:StopPlace:2595:,,1,ES:Euskotren:Level:Level:0:,
ES:Euskotren:Place:2596_Area_A1:,,Area 1,,"Barrio de la Astelarre, 93 / Muxika",43.287221,-2.689348,ES:Euskotren:Zone:8:,,3,ES:Euskotren:StopPlace:2596:,,1,ES:Euskotren:Level:Level:0:,
ES:Euskotren:Place:2596_Area_A2:,,Area 2,,"Barrio de la Astelarre, 93 / Muxika",43.287221,-2.689348,ES:Euskotren:Zone:8:,,3,ES:Euskotren:StopPlace:2596:,,1,ES:Euskotren:Level:Level:0:,
ES:Euskotren:Place:2597_Vestibulo_D1:,,Atondoa,,Calle Tiboli / Bilbao,43.269,-2.925285,ES:Euskotren:Zone:3:,,3,ES:Euskotren:StopPlace:2597:,,1,ES:Euskotren:Level:Level:0:,
ES:Euskotren:Place:2597_Vestibulo_H1:,,Atondoa,,Calle Tiboli / Bilbao,43.268968,-2.925113,ES:Euskotren:Zone:3:,,3,ES:Euskotren:StopPlace:2597:,,1,ES:Euskotren:Level:Level:0:,
ES:Euskotren:Place:2598_Vestibulo_H1:,,Atondoa,,"Calle Txomin Egileor, 48 / Galdakao",43.228887,-2.853507,ES:Euskotren:Zone:4:,,3,ES:Euskotren:StopPlace:2598:,,1,ES:Euskotren:Level:Level:0:,
ES:Euskotren:Place:2599_Area_A1:,,Area 1,,"Barrio de Axpe, 138-141 / Busturia",43.39117,-2.693755,ES:Euskotren:Zone:8:,,3,ES:Euskotren:StopPlace:2599:,,1,ES:Euskotren:Level:Level:0:,
ES:Euskotren:Place:2599_Area_A2:,,Area 2,,"Barrio de Axpe, 138-141 / Busturia",43.39117,-2.693755,ES:Euskotren:Zone:8:,,3,ES:Euskotren:StopPlace:2599:,,1,ES:Euskotren:Level:Level:0:,
ES:Euskotren:Place:2599_Area_A3:,,Area 3,,"Barrio de Axpe, 138-141 / Busturia",43.39117,-2.693755,ES:Euskotren:Zone:8:,,3,ES:Euskotren:StopPlace:2599:,,1,ES:Euskotren:Level:Level:0:,
ES:Euskotren:Place:2600_Area_A1:,,Area 1,,"Geltoki kalea, 2, bajo / Berriz",43.168777,-2.574351,ES:Euskotren:Zone:7:,,3,ES:Euskotren:StopPlace:2600:,,1,ES:Euskotren:Level:Level:0:,
ES:Euskotren:Place:2600_Area_A2:,,Area 2,,"Geltoki kalea, 2, bajo / Berriz",43.168757,-2.574263,ES:Euskotren:Zone:7:,,3,ES:Euskotren:StopPlace:2600:,,1,ES:Euskotren:Level:Level:0:,
ES:Euskotren:Place:2601_Area_A1:,,Area 1,,"Calle Elotxelerri, s/n / Loiu",43.294124,-2.91501,ES:Euskotren:Zone:2:,,3,ES:Euskotren:StopPlace:2601:,,1,ES:Euskotren:Level:Level:0:,
ES:Euskotren:Place:2601_Area_A2:,,Area 2,,"Calle Elotxelerri, s/n / Loiu",43.294161,-2.915206,ES:Euskotren:Zone:2:,,3,ES:Euskotren:StopPlace:2601:,,1,ES:Euskotren:Level:Level:0:,
ES:Euskotren:Place:2601_Vestibulo_D1:,,Atondoa,,"Calle Elotxelerri, s/n / Loiu",43.294239,-2.915352,ES:Euskotren:Zone:2:,,3,ES:Euskotren:StopPlace:2601:,,1,ES:Euskotren:Level:Level:0:,
ES:Euskotren:Place:2601_Vestibulo_D2:,,Atondoa,,"Calle Elotxelerri, s/n / Loiu",43.294149,-2.915437,ES:Euskotren:Zone:2:,,3,ES:Euskotren:StopPlace:2601:,,1,ES:Euskotren:Level:Level:0:,
ES:Euskotren:Place:2601_Vestibulo_H1:,,Atondoa,,"Calle Elotxelerri, s/n / Loiu",43.29421,-2.915275,ES:Euskotren:Zone:2:,,3,ES:Euskotren:StopPlace:2601:,,1,ES:Euskotren:Level:Level:0:,
ES:Euskotren:Place:2601_Vestibulo_H2:,,Atondoa,,"Calle Elotxelerri, s/n / Loiu",43.294117,-2.915356,ES:Euskotren:Zone:2:,,3,ES:Euskotren:StopPlace:2601:,,1,ES:Euskotren:Level:Level:0:,
ES:Euskotren:Place:2602_Area_A1:,,Area 1,,"Av de Guipuzkoa, 11-25 / Ermua",43.182796,-2.498825,ES:Euskotren:Zone:40:,,3,ES:Euskotren:StopPlace:2602:,,2,ES:Euskotren:Level:Level:1:,
ES:Euskotren:Place:2602_Area_A2:,,Area 2,,"Av de Guipuzkoa, 11-25 / Ermua",43.182796,-2.498825,ES:Euskotren:Zone:40:,,3,ES:Euskotren:StopPlace:2602:,,2,ES:Euskotren:Level:Level:1:,
ES:Euskotren:Place:2603_Vestibulo_D1:,,Atondoa,,Calle de Trañaetxoste / Abadiño,43.16663,-2.61575,ES:Euskotren:Zone:7:,,3,ES:Euskotren:StopPlace:2603:,,1,ES:Euskotren:Level:Level:0:,
ES:Euskotren:Place:2603_Vestibulo_H1:,,Atondoa,,Calle de Trañaetxoste / Abadiño,43.16663,-2.61575,ES:Euskotren:Zone:7:,,3,ES:Euskotren:StopPlace:2603:,,1,ES:Euskotren:Level:Level:0:,
ES:Euskotren:Place:2604_Area_A1:,,Area 1,,"Calle de Estazioko, 1, bajo / Zumaia",43.291687,-2.25113,ES:Euskotren:Zone:41:,,3,ES:Euskotren:StopPlace:2604:,,1,ES:Euskotren:Level:Level:Minus1:,
ES:Euskotren:Place:2604_Area_A2:,,Area 2,,"Calle de Estazioko, 1, bajo / Zumaia",43.291687,-2.25113,ES:Euskotren:Zone:41:,,3,ES:Euskotren:StopPlace:2604:,,1,ES:Euskotren:Level:Level:Minus1:,
ES:Euskotren:Place:2604_Vestibulo_D1:,,Atondoa,,"Calle de Estazioko, 1, bajo / Zumaia",43.291687,-2.25113,ES:Euskotren:Zone:41:,,3,ES:Euskotren:StopPlace:2604:,,1,ES:Euskotren:Level:Level:0:,
ES:Euskotren:Place:2604_Vestibulo_H1:,,Atondoa,,"Calle de Estazioko, 1, bajo / Zumaia",43.291687,-2.25113,ES:Euskotren:Zone:41:,,3,ES:Euskotren:StopPlace:2604:,,1,ES:Euskotren:Level:Level:0:,
ES:Euskotren:Place:2606_Area_A1:,,Area 1,,"Barrio de Euba, 20 / Amorebieta-Etxano",43.196437,-2.698512,ES:Euskotren:Zone:6:,,3,ES:Euskotren:StopPlace:2606:,,1,ES:Euskotren:Level:Level:1:,
ES:Euskotren:Place:2606_Area_A2:,,Area 2,,"Barrio de Euba, 20 / Amorebieta-Etxano",43.196437,-2.698512,ES:Euskotren:Zone:6:,,3,ES:Euskotren:StopPlace:2606:,,1,ES:Euskotren:Level:Level:1:,
ES:Euskotren:Place:2606_Area_A3:,,Area 2,,"Barrio de Euba, 20 / Amorebieta-Etxano",43.196437,-2.698512,ES:Euskotren:Zone:6:,,3,ES:Euskotren:StopPlace:2606:,,2,ES:Euskotren:Level:Level:0:,
ES:Euskotren:Place:2606_Vestibulo_D1:,,Atondoa,,"Barrio de Euba, 20 / Amorebieta-Etxano",43.196437,-2.698512,ES:Euskotren:Zone:6:,,3,ES:Euskotren:StopPlace:2606:,,1,ES:Euskotren:Level:Level:0:,
ES:Euskotren:Place:2606_Vestibulo_H1:,,Atondoa,,"Barrio de Euba, 20 / Amorebieta-Etxano",43.196437,-2.698512,ES:Euskotren:Zone:6:,,3,ES:Euskotren:StopPlace:2606:,,1,ES:Euskotren:Level:Level:0:,
ES:Euskotren:Place:2607_Vestibulo_D1:,,Atondoa,,"Barrio de Aretxalde, 78-84 / Lezama",43.273333,-2.835749,ES:Euskotren:Zone:2:,,3,ES:Euskotren:StopPlace:2607:,,1,ES:Euskotren:Level:Level:Minus1:,
ES:Euskotren:Place:2607_Vestibulo_H1:,,Atondoa,,"Barrio de Aretxalde, 78-84 / Lezama",43.273148,-2.835545,ES:Euskotren:Zone:2:,,3,ES:Euskotren:StopPlace:2607:,,1,ES:Euskotren:Level:Level:Minus1:,
ES:Euskotren:Place:2608_Area_A1:,,Área A1,,"Calle Zeharbidea, 6 / Donostia-San Sebastián",43.310179,-1.968383,ES:Euskotren:Zone:42:,,3,ES:Euskotren:StopPlace:2608:,,0,ES:Euskotren:Level:Level:0:,
ES:Euskotren:Place:2608_Vestibulo_D1:,,Atondoa,,"Calle Zeharbidea, 6 / Donostia-San Sebastián",43.310179,-1.968383,ES:Euskotren:Zone:42:,,3,ES:Euskotren:StopPlace:2608:,,0,ES:Euskotren:Level:Level:0:,
ES:Euskotren:Place:2608_Vestibulo_H1:,,Atondoa,,"Calle Zeharbidea, 6 / Donostia-San Sebastián",43.310179,-1.968383,ES:Euskotren:Zone:42:,,3,ES:Euskotren:StopPlace:2608:,,0,ES:Euskotren:Level:Level:0:,
ES:Euskotren:Place:2608_Vestibulo_H2:,,Atondoa,,"Calle Zeharbidea, 6 / Donostia-San Sebastián",43.310179,-1.968383,ES:Euskotren:Zone:42:,,3,ES:Euskotren:StopPlace:2608:,,0,ES:Euskotren:Level:Level:1:,
ES:Euskotren:Place:2608_Vestibulo_H3:,,Atondoa,,"Calle Zeharbidea, 6 / Donostia-San Sebastián",43.310179,-1.968383,ES:Euskotren:Zone:42:,,3,ES:Euskotren:StopPlace:2608:,,0,ES:Euskotren:Level:Level:1:,
ES:Euskotren:Place:2609_Area_A1:,,Área A1,,Avda. Gabriel Aresti / Bilbao,43.258296,-2.905596,ES:Euskotren:Zone:3:,,3,ES:Euskotren:StopPlace:2609:,,0,ES:Euskotren:Level:Level:Minus1:,
ES:Euskotren:Place:2609_Area_A2:,,Área A2,,Avda. Gabriel Aresti / Bilbao,43.258296,-2.905596,ES:Euskotren:Zone:3:,,3,ES:Euskotren:StopPlace:2609:,,0,ES:Euskotren:Level:Level:Minus1:,
ES:Euskotren:Place:2609_Area_A3:,,Área A3,,Avda. Gabriel Aresti / Bilbao,43.258296,-2.905596,ES:Euskotren:Zone:3:,,3,ES:Euskotren:StopPlace:2609:,,0,ES:Euskotren:Level:Level:Minus1:,
ES:Euskotren:Place:2609_Area_A4:,,Área A4,,Avda. Gabriel Aresti / Bilbao,43.258296,-2.905596,ES:Euskotren:Zone:3:,,3,ES:Euskotren:StopPlace:2609:,,0,ES:Euskotren:Level:Level:Minus1:,
ES:Euskotren:Place:2609_Area_A5:,,Área A5,,Avda. Gabriel Aresti / Bilbao,43.258296,-2.905596,ES:Euskotren:Zone:3:,,3,ES:Euskotren:StopPlace:2609:,,0,ES:Euskotren:Level:Level:Minus1:,
ES:Euskotren:Place:2609_Vestibulo_D1:,,Vestíbulo D1,,Avda. Gabriel Aresti / Bilbao,43.258296,-2.905596,ES:Euskotren:Zone:3:,,3,ES:Euskotren:StopPlace:2609:,,0,ES:Euskotren:Level:Level:Minus1:,
ES:Euskotren:Place:2609_Vestibulo_D2:,,Vestíbulo D2,,Avda. Gabriel Aresti / Bilbao,43.258296,-2.905596,ES:Euskotren:Zone:3:,,3,ES:Euskotren:StopPlace:2609:,,0,ES:Euskotren:Level:Level:Minus1:,
ES:Euskotren:Place:2609_Vestibulo_H2:,,Vestíbulo H2,,Avda. Gabriel Aresti / Bilbao,43.258296,-2.905596,ES:Euskotren:Zone:3:,,3,ES:Euskotren:StopPlace:2609:,,0,ES:Euskotren:Level:Level:Minus1:,
ES:Euskotren:Place:2609_Vestibulo_H3:,,Vestíbulo H3,,Avda. Gabriel Aresti / Bilbao,43.258296,-2.905596,ES:Euskotren:Zone:3:,,3,ES:Euskotren:StopPlace:2609:,,0,ES:Euskotren:Level:Level:Minus2:,
ES:Euskotren:Place:2609_Vestibulo_H4:,,Vestíbulo H4,,Avda. Gabriel Aresti / Bilbao,43.258296,-2.905596,ES:Euskotren:Zone:3:,,3,ES:Euskotren:StopPlace:2609:,,0,ES:Euskotren:Level:Level:Minus2:,
ES:Euskotren:Place:2609_vestibulo_H1:,,Vestíbulo H1,,Avda. Gabriel Aresti / Bilbao,43.258296,-2.905596,ES:Euskotren:Zone:3:,,3,ES:Euskotren:StopPlace:2609:,,0,ES:Euskotren:Level:Level:Minus1:,
ES:Euskotren:Place:2610_Vestibulo_D1:,,Vestíbulo D1,,"Avda. Galtzaraborda, s/n / Errenteria",43.312434,-1.906913,ES:Euskotren:Zone:42:,,3,ES:Euskotren:StopPlace:2610:,,1,ES:Euskotren:Level:Level:0:,
ES:Euskotren:Place:2610_Vestibulo_H1:,,Vestíbulo H1,,"Avda. Galtzaraborda, s/n / Errenteria",43.312434,-1.906913,ES:Euskotren:Zone:42:,,3,ES:Euskotren:StopPlace:2610:,,1,ES:Euskotren:Level:Level:0:,
ES:Euskotren:Place:2612_Vestibulo_D1:,,Atondoa,,"Barrio Arragua, s/n / Oiartzun",43.30853,-1.879715,ES:Euskotren:Zone:42:,,3,ES:Euskotren:StopPlace:2612:,,1,ES:Euskotren:Level:Level:0:,
ES:Euskotren:Place:2612_Vestibulo_D2:,,Atondoa,,"Barrio Arragua, s/n / Oiartzun",43.30853,-1.879715,ES:Euskotren:Zone:42:,,3,ES:Euskotren:StopPlace:2612:,,1,ES:Euskotren:Level:Level:1:,
ES:Euskotren:Place:2612_Vestibulo_H1:,,Atondoa,,"Barrio Arragua, s/n / Oiartzun",43.30853,-1.879715,ES:Euskotren:Zone:42:,,3,ES:Euskotren:StopPlace:2612:,,1,ES:Euskotren:Level:Level:0:,
ES:Euskotren:Place:2613_Area_A1:,,Area 1,,"Barrio de San Isidro, 3 / Zestoa",43.278379,-2.270709,ES:Euskotren:Zone:41:,,3,ES:Euskotren:StopPlace:2613:,,1,ES:Euskotren:Level:Level:0:,
ES:Euskotren:Place:2614_Area_A1:,,Area 1,,"Barrio de Arteaga, 14 / Derio",43.290911,-2.886706,ES:Euskotren:Zone:2:,,3,ES:Euskotren:StopPlace:2614:,,1,ES:Euskotren:Level:Level:Minus1:,
ES:Euskotren:Place:2614_Area_A2:,,Area 2,,"Barrio de Arteaga, 14 / Derio",43.2907,-2.886874,ES:Euskotren:Zone:2:,,3,ES:Euskotren:StopPlace:2614:,,1,ES:Euskotren:Level:Level:Minus1:,
ES:Euskotren:Place:2614_Area_A3:,,Area 3,,"Barrio de Arteaga, 14 / Derio",43.290757,-2.886862,ES:Euskotren:Zone:2:,,3,ES:Euskotren:StopPlace:2614:,,1,ES:Euskotren:Level:Level:Minus1:,
ES:Euskotren:Place:2614_Area_A4:,,Area 4,,"Barrio de Arteaga, 14 / Derio",43.290786,-2.886925,ES:Euskotren:Zone:2:,,3,ES:Euskotren:StopPlace:2614:,,1,ES:Euskotren:Level:Level:0:,
ES:Euskotren:Place:2614_Vestibulo_D1:,,Atondoa,,"Barrio de Arteaga, 14 / Derio",43.290784,-2.886958,ES:Euskotren:Zone:2:,,3,ES:Euskotren:StopPlace:2614:,,1,ES:Euskotren:Level:Level:Minus1:,
ES:Euskotren:Place:2614_Vestibulo_H1:,,Atondoa,,"Barrio de Arteaga, 14 / Derio",43.290775,-2.886922,ES:Euskotren:Zone:2:,,3,ES:Euskotren:StopPlace:2614:,,1,ES:Euskotren:Level:Level:Minus1:,
ES:Euskotren:Place:2615_Area_A1:,,Area 1,,"Barrio de Axpe, 35 / Busturia",43.38012,-2.692974,ES:Euskotren:Zone:8:,,3,ES:Euskotren:StopPlace:2615:,,2,ES:Euskotren:Level:Level:0:,
ES:Euskotren:Place:2615_Vestibulo_D1:,,Atondoa,,"Barrio de Axpe, 35 / Busturia",43.38012,-2.692974,ES:Euskotren:Zone:8:,,3,ES:Euskotren:StopPlace:2615:,,1,ES:Euskotren:Level:Level:0:,
ES:Euskotren:Place:2615_Vestibulo_H1:,,Atondoa,,"Barrio de Axpe, 35 / Busturia",43.38012,-2.692974,ES:Euskotren:Zone:8:,,3,ES:Euskotren:StopPlace:2615:,,1,ES:Euskotren:Level:Level:0:,
ES:Euskotren:Place:2616_Area_A1:,,Area 1,,"Calle Geltoki, 1 bajo / Mundaka",43.408842,-2.701078,ES:Euskotren:Zone:8:,,3,ES:Euskotren:StopPlace:2616:,,2,ES:Euskotren:Level:Level:0:,
ES:Euskotren:Place:2616_Area_A2:,,Area 2,,"Calle Geltoki, 1 bajo / Mundaka",43.408842,-2.701078,ES:Euskotren:Zone:8:,,3,ES:Euskotren:StopPlace:2616:,,2,ES:Euskotren:Level:Level:0:,
ES:Euskotren:Place:2616_Vestibulo_D1:,,Atondoa,,"Calle Geltoki, 1 bajo / Mundaka",43.408842,-2.701078,ES:Euskotren:Zone:8:,,3,ES:Euskotren:StopPlace:2616:,,1,ES:Euskotren:Level:Level:0:,
ES:Euskotren:Place:2616_Vestibulo_H1:,,Atondoa,,"Calle Geltoki, 1 bajo / Mundaka",43.408842,-2.701078,ES:Euskotren:Zone:8:,,3,ES:Euskotren:StopPlace:2616:,,1,ES:Euskotren:Level:Level:0:,
ES:Euskotren:Place:2617_Area_A1:,,Area 1,,Calle Zumaia / Bilbao,43.264229,-2.912749,ES:Euskotren:Zone:3:,,3,ES:Euskotren:StopPlace:2617:,,2,ES:Euskotren:Level:Level:1:,
ES:Euskotren:Place:2617_Area_A2:,,Area 2,,Calle Zumaia / Bilbao,43.264229,-2.912749,ES:Euskotren:Zone:3:,,3,ES:Euskotren:StopPlace:2617:,,2,ES:Euskotren:Level:Level:1:,
ES:Euskotren:Place:2617_Area_A3:,,Area 3,,Calle Zumaia / Bilbao,43.264229,-2.912749,ES:Euskotren:Zone:3:,,3,ES:Euskotren:StopPlace:2617:,,2,ES:Euskotren:Level:Level:0:,
ES:Euskotren:Place:2617_Area_A4:,,Area 4,,Calle Zumaia / Bilbao,43.264229,-2.912749,ES:Euskotren:Zone:3:,,3,ES:Euskotren:StopPlace:2617:,,1,ES:Euskotren:Level:Level:0:,
ES:Euskotren:Place:2617_Area_A5:,,Area 5,,Calle Zumaia / Bilbao,43.264229,-2.912749,ES:Euskotren:Zone:3:,,3,ES:Euskotren:StopPlace:2617:,,1,ES:Euskotren:Level:Level:0:,
ES:Euskotren:Place:2617_Area_A6:,,Area 6,,Calle Zumaia / Bilbao,43.264229,-2.912749,ES:Euskotren:Zone:3:,,3,ES:Euskotren:StopPlace:2617:,,1,ES:Euskotren:Level:Level:0:,
ES:Euskotren:Place:2617_Area_A7:,,Area 7,,Calle Zumaia / Bilbao,43.264229,-2.912749,ES:Euskotren:Zone:3:,,3,ES:Euskotren:StopPlace:2617:,,1,ES:Euskotren:Level:Level:0:,
ES:Euskotren:Place:2617_Vestibulo_D1:,,Atondoa,,Calle Zumaia / Bilbao,43.264229,-2.912749,ES:Euskotren:Zone:3:,,3,ES:Euskotren:StopPlace:2617:,,1,ES:Euskotren:Level:Level:0:,
ES:Euskotren:Place:2617_Vestibulo_D2:,,Atondoa,,Calle Zumaia / Bilbao,43.264229,-2.912749,ES:Euskotren:Zone:3:,,3,ES:Euskotren:StopPlace:2617:,,1,ES:Euskotren:Level:Level:0:,
ES:Euskotren:Place:2617_Vestibulo_H1:,,Atondoa,,Calle Zumaia / Bilbao,43.264229,-2.912749,ES:Euskotren:Zone:3:,,3,ES:Euskotren:StopPlace:2617:,,1,ES:Euskotren:Level:Level:0:,
ES:Euskotren:Place:2617_Vestibulo_H2:,,Atondoa,,Calle Zumaia / Bilbao,43.264229,-2.912749,ES:Euskotren:Zone:3:,,3,ES:Euskotren:StopPlace:2617:,,1,ES:Euskotren:Level:Level:0:,
ES:Euskotren:Place:2617_Vestibulo_H3:,,Atondoa,,Calle Zumaia / Bilbao,43.264229,-2.912749,ES:Euskotren:Zone:3:,,3,ES:Euskotren:StopPlace:2617:,,1,ES:Euskotren:Level:Level:Minus1:,
ES:Euskotren:Place:2617_Vestibulo_H4:,,Atondoa,,Calle Zumaia / Bilbao,43.264229,-2.912749,ES:Euskotren:Zone:3:,,3,ES:Euskotren:StopPlace:2617:,,1,ES:Euskotren:Level:Level:Minus1:,
ES:Euskotren:Place:2617_Vestibulo_H5:,,Atondoa,,Calle Zumaia / Bilbao,43.264229,-2.912749,ES:Euskotren:Zone:3:,,3,ES:Euskotren:StopPlace:2617:,,1,ES:Euskotren:Level:Level:Minus1:,
ES:Euskotren:Place:2617_Vestibulo_H6:,,Atondoa,,Calle Zumaia / Bilbao,43.264229,-2.912749,ES:Euskotren:Zone:3:,,3,ES:Euskotren:StopPlace:2617:,,1,ES:Euskotren:Level:Level:Minus1:,
ES:Euskotren:Place:2618_Area_A1:,,Area 1,,"Calle Geltoki, 2 / Durango",43.170183,-2.636888,ES:Euskotren:Zone:7:,,3,ES:Euskotren:StopPlace:2618:,,1,ES:Euskotren:Level:Level:Minus1:,
ES:Euskotren:Place:2618_Area_A2:,,Area 2,,"Calle Geltoki, 2 / Durango",43.170183,-2.636888,ES:Euskotren:Zone:7:,,3,ES:Euskotren:StopPlace:2618:,,2,ES:Euskotren:Level:Level:0:,
ES:Euskotren:Place:2618_Area_A3:,,Area 3,,"Calle Geltoki, 2 / Durango",43.170183,-2.636888,ES:Euskotren:Zone:7:,,3,ES:Euskotren:StopPlace:2618:,,2,ES:Euskotren:Level:Level:Minus1:,
ES:Euskotren:Place:2618_Vestibulo_D2:,,Atondoa,,"Calle Geltoki, 2 / Durango",43.170183,-2.636888,ES:Euskotren:Zone:7:,,3,ES:Euskotren:StopPlace:2618:,,1,ES:Euskotren:Level:Level:Minus1:,
ES:Euskotren:Place:2618_Vestibulo_H1:,,Atondoa,,"Calle Geltoki, 2 / Durango",43.170183,-2.636888,ES:Euskotren:Zone:7:,,3,ES:Euskotren:StopPlace:2618:,,1,ES:Euskotren:Level:Level:1:,
ES:Euskotren:Place:2618_Vestibulo_H2:,,Atondoa,,"Calle Geltoki, 2 / Durango",43.170183,-2.636888,ES:Euskotren:Zone:7:,,3,ES:Euskotren:StopPlace:2618:,,1,ES:Euskotren:Level:Level:Minus1:,
ES:Euskotren:Place:2618_Vestibulo_H3:,,Atondoa,,"Calle Geltoki, 2 / Durango",43.170183,-2.636888,ES:Euskotren:Zone:7:,,3,ES:Euskotren:StopPlace:2618:,,1,ES:Euskotren:Level:Level:Minus1:,
ES:Euskotren:Place:2619_Area_A1:,,Area 1,,"Estación, 21, bajo / Eibar",43.187065,-2.465858,ES:Euskotren:Zone:40:,,3,ES:Euskotren:StopPlace:2619:,,1,ES:Euskotren:Level:Level:1:,
ES:Euskotren:Place:2619_Area_A2:,,Area 2,,"Estación, 21, bajo / Eibar",43.187065,-2.465858,ES:Euskotren:Zone:40:,,3,ES:Euskotren:StopPlace:2619:,,1,ES:Euskotren:Level:Level:1:,
ES:Euskotren:Place:2619_Vestibulo_D1:,,Atondoa,,"Estación, 21, bajo / Eibar",43.187065,-2.465858,ES:Euskotren:Zone:40:,,3,ES:Euskotren:StopPlace:2619:,,1,ES:Euskotren:Level:Level:0:,
ES:Euskotren:Place:2619_Vestibulo_H1:,,Atondoa,,"Estación, 21, bajo / Eibar",43.187065,-2.465858,ES:Euskotren:Zone:40:,,3,ES:Euskotren:StopPlace:2619:,,1,ES:Euskotren:Level:Level:0:,
ES:Euskotren:Place:2620_Area_A1:,,Area 1,,Barrio de Barroeta / Bedia,43.206166,-2.798034,ES:Euskotren:Zone:6:,,3,ES:Euskotren:StopPlace:2620:,,1,ES:Euskotren:Level:Level:0:,
ES:Euskotren:Place:2620_Area_A2:,,Area 2,,Barrio de Barroeta / Bedia,43.206166,-2.798034,ES:Euskotren:Zone:6:,,3,ES:Euskotren:StopPlace:2620:,,1,ES:Euskotren:Level:Level:0:,
ES:Euskotren:Place:2621_Vestibulo_D1:,,Atondoa,,Paseo de Lugaritz / Donostia-San Sebastián,43.302646,-2.000204,ES:Euskotren:Zone:42:,,3,ES:Euskotren:StopPlace:2621:,,1,ES:Euskotren:Level:Level:0:,
ES:Euskotren:Place:2621_Vestibulo_H1:,,Atondoa,,Paseo de Lugaritz / Donostia-San Sebastián,43.302646,-2.000204,ES:Euskotren:Zone:42:,,3,ES:Euskotren:StopPlace:2621:,,1,ES:Euskotren:Level:Level:0:,
ES:Euskotren:Place:2622_Area_A1:,,Area ,,"Trenbide kalea, 14, bajo / Elgoibar",43.213448,-2.415885,ES:Euskotren:Zone:40:,,3,ES:Euskotren:StopPlace:2622:,,1,ES:Euskotren:Level:Level:0:,
ES:Euskotren:Place:2622_Area_A2:,,Area 2,,"Trenbide kalea, 14, bajo / Elgoibar",43.213448,-2.415885,ES:Euskotren:Zone:40:,,3,ES:Euskotren:StopPlace:2622:,,1,ES:Euskotren:Level:Level:0:,
ES:Euskotren:Place:2622_Area_A3:,,Area 3,,"Trenbide kalea, 14, bajo / Elgoibar",43.213448,-2.415885,ES:Euskotren:Zone:40:,,3,ES:Euskotren:StopPlace:2622:,,1,ES:Euskotren:Level:Level:0:,
ES:Euskotren:Place:2622_Vestibulo_D2:,,Atondoa (geltokikoa),,"Trenbide kalea, 14, bajo / Elgoibar",43.213448,-2.415885,ES:Euskotren:Zone:40:,,3,ES:Euskotren:StopPlace:2622:,,1,ES:Euskotren:Level:Level:0:,
ES:Euskotren:Place:2622_Vestibulo_H1:,,Atondoa (kanpokoa),,"Trenbide kalea, 14, bajo / Elgoibar",43.213448,-2.415885,ES:Euskotren:Zone:40:,,3,ES:Euskotren:StopPlace:2622:,,1,ES:Euskotren:Level:Level:0:,
ES:Euskotren:Place:2622_Vestibulo_H2:,,Atondoa (geltokikoa),,"Trenbide kalea, 14, bajo / Elgoibar",43.213448,-2.415885,ES:Euskotren:Zone:40:,,3,ES:Euskotren:StopPlace:2622:,,1,ES:Euskotren:Level:Level:0:,
ES:Euskotren:Place:2624_Vestibulo_D1:,,Atondoa,,"Avd. Jose Elosegi, 297 / Donostia-San Sebastián",43.320059,-1.937832,ES:Euskotren:Zone:42:,,3,ES:Euskotren:StopPlace:2624:,,1,ES:Euskotren:Level:Level:0:,
ES:Euskotren:Place:2624_Vestibulo_H1:,,Atondoa,,"Avd. Jose Elosegi, 297 / Donostia-San Sebastián",43.320059,-1.937832,ES:Euskotren:Zone:42:,,3,ES:Euskotren:StopPlace:2624:,,1,ES:Euskotren:Level:Level:0:,
ES:Euskotren:Place:2625_Area_A1:,,Area 1,,Avda. Fanderia / Errenteria,43.308241,-1.889394,ES:Euskotren:Zone:42:,,3,ES:Euskotren:StopPlace:2625:,,1,ES:Euskotren:Level:Level:1:,
ES:Euskotren:Place:2625_Vestibulo_D2:,,Atondoa,,Avda. Fanderia / Errenteria,43.308227,-1.889402,ES:Euskotren:Zone:42:,,3,ES:Euskotren:StopPlace:2625:,,1,ES:Euskotren:Level:Level:0:,
ES:Euskotren:Place:2625_Vestibulo_H1:,,Atondoa,,Avda. Fanderia / Errenteria,43.308227,-1.889402,ES:Euskotren:Zone:42:,,3,ES:Euskotren:StopPlace:2625:,,1,ES:Euskotren:Level:Level:Minus1:,
ES:Euskotren:Place:2625_Vestibulo_H2:,,Atondoa,,Avda. Fanderia / Errenteria,43.308227,-1.889402,ES:Euskotren:Zone:42:,,3,ES:Euskotren:StopPlace:2625:,,1,ES:Euskotren:Level:Level:0:,
ES:Euskotren:Place:2629_Vestibulo_D1:,,Atondoa,,Camino de Molinaga / Loiu,43.294457,-2.905544,ES:Euskotren:Zone:2:,,3,ES:Euskotren:StopPlace:2629:,,1,ES:Euskotren:Level:Level:0:,
ES:Euskotren:Place:2629_Vestibulo_H1:,,Atondoa,,Camino de Molinaga / Loiu,43.294461,-2.905488,ES:Euskotren:Zone:2:,,3,ES:Euskotren:StopPlace:2629:,,1,ES:Euskotren:Level:Level:0:,
ES:Euskotren:Place:2631_Area_A1:,,Area 1,,"Paseo de Larratxo, 95 / Donostia-San Sebastián",43.316674,-1.929814,ES:Euskotren:Zone:42:,,3,ES:Euskotren:StopPlace:2631:,,2,ES:Euskotren:Level:Level:0:,
ES:Euskotren:Place:2631_Area_A2:,,Area 2,,"Paseo de Larratxo, 95 / Donostia-San Sebastián",43.316674,-1.929814,ES:Euskotren:Zone:42:,,3,ES:Euskotren:StopPlace:2631:,,2,ES:Euskotren:Level:Level:0:,
ES:Euskotren:Place:2631_Area_A3:,,Area 3,,"Paseo de Larratxo, 95 / Donostia-San Sebastián",43.316674,-1.929814,ES:Euskotren:Zone:42:,,3,ES:Euskotren:StopPlace:2631:,,2,ES:Euskotren:Level:Level:0:,
ES:Euskotren:Place:2631_Area_A4:,,Area 4,,"Paseo de Larratxo, 95 / Donostia-San Sebastián",43.316674,-1.929814,ES:Euskotren:Zone:42:,,3,ES:Euskotren:StopPlace:2631:,,2,ES:Euskotren:Level:Level:0:,
ES:Euskotren:Place:2631_Vestibulo_D1:,,Atondoa,,"Paseo de Larratxo, 95 / Donostia-San Sebastián",43.316674,-1.929814,ES:Euskotren:Zone:42:,,3,ES:Euskotren:StopPlace:2631:,,2,ES:Euskotren:Level:Level:Minus1:,
ES:Euskotren:Place:2631_Vestibulo_D2:,,Atondoa,,"Paseo de Larratxo, 95 / Donostia-San Sebastián",43.316674,-1.929814,ES:Euskotren:Zone:42:,,3,ES:Euskotren:StopPlace:2631:,,1,ES:Euskotren:Level:Level:Minus1:,
ES:Euskotren:Place:2631_Vestibulo_H1:,,Atondoa,,"Paseo de Larratxo, 95 / Donostia-San Sebastián",43.316674,-1.929814,ES:Euskotren:Zone:42:,,3,ES:Euskotren:StopPlace:2631:,,2,ES:Euskotren:Level:Level:Minus1:,
ES:Euskotren:Place:2631_Vestibulo_H2:,,Atondoa,,"Paseo de Larratxo, 95 / Donostia-San Sebastián",43.316674,-1.929814,ES:Euskotren:Zone:42:,,3,ES:Euskotren:StopPlace:2631:,,1,ES:Euskotren:Level:Level:Minus1:,
ES:Euskotren:Place:2632_Area_A1:,,Area 1,,Avda. Elizatxo / Irun,43.330444,-1.816976,ES:Euskotren:Zone:43:,,3,ES:Euskotren:StopPlace:2632:,,1,ES:Euskotren:Level:Level:0:,
ES:Euskotren:Place:2632_Area_A2:,,Area 2,,Avda. Elizatxo / Irun,43.330444,-1.816976,ES:Euskotren:Zone:43:,,3,ES:Euskotren:StopPlace:2632:,,1,ES:Euskotren:Level:Level:0:,
ES:Euskotren:Place:2632_Vestibulo_H1:,,Atondoa,,Avda. Elizatxo / Irun,43.330444,-1.816976,ES:Euskotren:Zone:43:,,3,ES:Euskotren:StopPlace:2632:,,1,ES:Euskotren:Level:Level:0:,
ES:Euskotren:Place:2633_Area_A1:,,Area 1,,"Plaza Arakistain, 6 / Deba",43.294308,-2.355492,ES:Euskotren:Zone:40:,,3,ES:Euskotren:StopPlace:2633:,,1,ES:Euskotren:Level:Level:0:,
ES:Euskotren:Place:2633_Vestibulo_D1:,,Atondoa,,"Plaza Arakistain, 6 / Deba",43.293681,-2.355604,ES:Euskotren:Zone:40:,,3,ES:Euskotren:StopPlace:2633:,,1,ES:Euskotren:Level:Level:0:,
ES:Euskotren:Place:2633_Vestibulo_H1:,,Atondoa,,"Plaza Arakistain, 6 / Deba",43.293681,-2.355604,ES:Euskotren:Zone:40:,,3,ES:Euskotren:StopPlace:2633:,,1,ES:Euskotren:Level:Level:0:,
ES:Euskotren:Place:2635_Vestibulo_H1:,,Atondoa,,Calle de Amaña / Eibar,43.184872,-2.479785,ES:Euskotren:Zone:40:,,3,ES:Euskotren:StopPlace:2635:,,1,ES:Euskotren:Level:Level:Minus1:,
ES:Euskotren:Place:2636_Vestibulo_D1:,,Atondoa,,Calle de los Balleneros / Irun,43.336518,-1.803734,ES:Euskotren:Zone:43:,,3,ES:Euskotren:StopPlace:2636:,,1,ES:Euskotren:Level:Level:0:,
ES:Euskotren:Place:2636_Vestibulo_H1:,,Atondoa,,Calle de los Balleneros / Irun,43.336518,-1.803734,ES:Euskotren:Zone:43:,,3,ES:Euskotren:StopPlace:2636:,,1,ES:Euskotren:Level:Level:0:,
ES:Euskotren:Place:2637_Vestibulo_D1:,,Atondoa,,"Calle Sabino Arana, 42, bajo / Amorebieta-Etxano",43.216576,-2.736155,ES:Euskotren:Zone:6:,,3,ES:Euskotren:StopPlace:2637:,,1,ES:Euskotren:Level:Level:0:,
ES:Euskotren:Place:2637_Vestibulo_H1:,,Atondoa,,"Calle Sabino Arana, 42, bajo / Amorebieta-Etxano",43.216576,-2.736155,ES:Euskotren:Zone:6:,,3,ES:Euskotren:StopPlace:2637:,,1,ES:Euskotren:Level:Level:0:,
ES:Euskotren:Place:2638_Area_A1:,,Área 1,,"Barrio de Aretxalde,156 / Lezama",43.276579,-2.846327,ES:Euskotren:Zone:2:,,3,ES:Euskotren:StopPlace:2638:,,1,ES:Euskotren:Level:Level:1:,
ES:Euskotren:Place:2638_Area_A2:,,Área 2,,"Barrio de Aretxalde,156 / Lezama",43.276579,-2.846327,ES:Euskotren:Zone:2:,,3,ES:Euskotren:StopPlace:2638:,,1,ES:Euskotren:Level:Level:1:,
ES:Euskotren:Place:2638_Area_A3:,,Area 3,,"Barrio de Aretxalde,156 / Lezama",43.276579,-2.846327,ES:Euskotren:Zone:2:,,3,ES:Euskotren:StopPlace:2638:,,1,ES:Euskotren:Level:Level:0:,
ES:Euskotren:Place:2638_Vestibulo_D1:,,Atondoa,,"Barrio de Aretxalde,156 / Lezama",43.276482,-2.846036,ES:Euskotren:Zone:2:,,3,ES:Euskotren:StopPlace:2638:,,1,ES:Euskotren:Level:Level:0:,
ES:Euskotren:Place:2638_Vestibulo_D2:,,Atondoa,,"Barrio de Aretxalde,156 / Lezama",43.276453,-2.84618,ES:Euskotren:Zone:2:,,3,ES:Euskotren:StopPlace:2638:,,1,ES:Euskotren:Level:Level:0:,
ES:Euskotren:Place:2638_Vestibulo_H1:,,Atondoa,,"Barrio de Aretxalde,156 / Lezama",43.276501,-2.846,ES:Euskotren:Zone:2:,,3,ES:Euskotren:StopPlace:2638:,,1,ES:Euskotren:Level:Level:0:,
ES:Euskotren:Place:2638_Vestibulo_H2:,,Atondoa,,"Barrio de Aretxalde,156 / Lezama",43.276429,-2.84614,ES:Euskotren:Zone:2:,,3,ES:Euskotren:StopPlace:2638:,,1,ES:Euskotren:Level:Level:0:,
ES:Euskotren:Place:2639_Area_A1:,,Area 1,,"C/ Bernar Etxepare, 33 / Etxebarri",43.250278,-2.889793,ES:Euskotren:Zone:18:,,3,ES:Euskotren:StopPlace:2639:,,1,ES:Euskotren:Level:Level:1:,
ES:Euskotren:Place:2639_Area_A2:,,Area 2,,"C/ Bernar Etxepare, 33 / Etxebarri",43.250278,-2.889793,ES:Euskotren:Zone:18:,,3,ES:Euskotren:StopPlace:2639:,,1,ES:Euskotren:Level:Level:1:,
ES:Euskotren:Place:2639_Vestibulo_D1:,,Atondoa,,"C/ Bernar Etxepare, 33 / Etxebarri",43.250278,-2.889793,ES:Euskotren:Zone:18:,,3,ES:Euskotren:StopPlace:2639:,,1,ES:Euskotren:Level:Level:1:,
ES:Euskotren:Place:2639_Vestibulo_H1:,,Atondoa,,"C/ Bernar Etxepare, 33 / Etxebarri",43.250278,-2.889793,ES:Euskotren:Zone:18:,,3,ES:Euskotren:StopPlace:2639:,,1,ES:Euskotren:Level:Level:1:,
ES:Euskotren:Place:2640_Area_A1:,,Area 1,,"Calle de Barrena, 9-11 / Eibar",43.190078,-2.456818,ES:Euskotren:Zone:40:,,3,ES:Euskotren:StopPlace:2640:,,1,ES:Euskotren:Level:Level:0:,
ES:Euskotren:Place:2640_Area_A2:,,Area 2,,"Calle de Barrena, 9-11 / Eibar",43.190078,-2.456818,ES:Euskotren:Zone:40:,,3,ES:Euskotren:StopPlace:2640:,,1,ES:Euskotren:Level:Level:1:,
ES:Euskotren:Place:2640_Vestibulo_D1:,,Atondoa,,"Calle de Barrena, 9-11 / Eibar",43.190078,-2.456818,ES:Euskotren:Zone:40:,,3,ES:Euskotren:StopPlace:2640:,,1,ES:Euskotren:Level:Level:0:,
ES:Euskotren:Place:2640_Vestibulo_H1:,,Atondoa,,"Calle de Barrena, 9-11 / Eibar",43.190078,-2.456818,ES:Euskotren:Zone:40:,,3,ES:Euskotren:StopPlace:2640:,,1,ES:Euskotren:Level:Level:0:,
ES:Euskotren:Place:2641_Area_A10:,,Area 10,,Calle Trauko / Bilbao,43.266825,-2.919685,ES:Euskotren:Zone:3:,,3,ES:Euskotren:StopPlace:2641:,,2,ES:Euskotren:Level:Level:0:,
ES:Euskotren:Place:2641_Area_A1:,,Area 1,,Calle Trauko / Bilbao,43.265546,-2.920575,ES:Euskotren:Zone:3:,,3,ES:Euskotren:StopPlace:2641:,,1,ES:Euskotren:Level:Level:0:,
ES:Euskotren:Place:2641_Area_A2:,,Area 2,,Calle Trauko / Bilbao,43.266825,-2.919685,ES:Euskotren:Zone:3:,,3,ES:Euskotren:StopPlace:2641:,,1,ES:Euskotren:Level:Level:0:,
ES:Euskotren:Place:2641_Area_A3:,,Area 3,,Calle Trauko / Bilbao,43.266825,-2.919685,ES:Euskotren:Zone:3:,,3,ES:Euskotren:StopPlace:2641:,,2,ES:Euskotren:Level:Level:0:,
ES:Euskotren:Place:2641_Area_A4:,,Area 4,,Calle Trauko / Bilbao,43.266825,-2.919685,ES:Euskotren:Zone:3:,,3,ES:Euskotren:StopPlace:2641:,,1,ES:Euskotren:Level:Level:0:,
ES:Euskotren:Place:2641_Area_A5:,,Area 5,,Calle Trauko / Bilbao,43.266825,-2.919685,ES:Euskotren:Zone:3:,,3,ES:Euskotren:StopPlace:2641:,,1,ES:Euskotren:Level:Level:0:,
ES:Euskotren:Place:2641_Area_A6:,,Area 6,,Calle Trauko / Bilbao,43.266825,-2.919685,ES:Euskotren:Zone:3:,,3,ES:Euskotren:StopPlace:2641:,,2,ES:Euskotren:Level:Level:0:,
ES:Euskotren:Place:2641_Area_A7:,,Area 7,,Calle Trauko / Bilbao,43.266825,-2.919685,ES:Euskotren:Zone:3:,,3,ES:Euskotren:StopPlace:2641:,,1,ES:Euskotren:Level:Level:0:,
ES:Euskotren:Place:2641_Area_A8:,,Area 8,,Calle Trauko / Bilbao,43.266825,-2.919685,ES:Euskotren:Zone:3:,,3,ES:Euskotren:StopPlace:2641:,,2,ES:Euskotren:Level:Level:1:,
ES:Euskotren:Place:2641_Area_A9:,,Area 9,,Calle Trauko / Bilbao,43.266825,-2.919685,ES:Euskotren:Zone:3:,,3,ES:Euskotren:StopPlace:2641:,,2,ES:Euskotren:Level:Level:1:,
ES:Euskotren:Place:2641_Vestibulo_D1:,,Atondoa,,Calle Trauko / Bilbao,43.266825,-2.919685,ES:Euskotren:Zone:3:,,3,ES:Euskotren:StopPlace:2641:,,1,ES:Euskotren:Level:Level:0:,
ES:Euskotren:Place:2641_Vestibulo_D2:,,Atondoa,,Calle Trauko / Bilbao,43.266825,-2.919685,ES:Euskotren:Zone:3:,,3,ES:Euskotren:StopPlace:2641:,,2,ES:Euskotren:Level:Level:0:,
ES:Euskotren:Place:2641_Vestibulo_H1:,,Atondoa,,Calle Trauko / Bilbao,43.266825,-2.919685,ES:Euskotren:Zone:3:,,3,ES:Euskotren:StopPlace:2641:,,1,ES:Euskotren:Level:Level:0:,
ES:Euskotren:Place:2641_Vestibulo_H2:,,Atondoa,,Calle Trauko / Bilbao,43.266825,-2.919685,ES:Euskotren:Zone:3:,,3,ES:Euskotren:StopPlace:2641:,,2,ES:Euskotren:Level:Level:0:,
ES:Euskotren:Place:2641_Vestibulo_H3:,,Atondoa,,Calle Trauko / Bilbao,43.266825,-2.919685,ES:Euskotren:Zone:3:,,3,ES:Euskotren:StopPlace:2641:,,1,ES:Euskotren:Level:Level:Minus1:,
ES:Euskotren:Place:2641_Vestibulo_H4:,,Atondoa,,Calle Trauko / Bilbao,43.266825,-2.919685,ES:Euskotren:Zone:3:,,3,ES:Euskotren:StopPlace:2641:,,1,ES:Euskotren:Level:Level:Minus1:,
ES:Euskotren:Place:2642_Vestibulo_D1:,,Atondoa,,Mikel Zarate Plaza / Zamudio,43.284349,-2.864819,ES:Euskotren:Zone:2:,,3,ES:Euskotren:StopPlace:2642:,,1,ES:Euskotren:Level:Level:0:,
ES:Euskotren:Place:2642_Vestibulo_H1:,,Atondoa,,Mikel Zarate Plaza / Zamudio,43.284377,-2.864805,ES:Euskotren:Zone:2:,,3,ES:Euskotren:StopPlace:2642:,,1,ES:Euskotren:Level:Level:0:,
ES:Euskotren:Place:2645_Area_A1:,,Area 1,,"Plaza estación, s/n bajo / Gernika-Lumo",43.314515,-2.675856,ES:Euskotren:Zone:8:,,3,ES:Euskotren:StopPlace:2645:,,1,ES:Euskotren:Level:Level:0:,
ES:Euskotren:Place:2645_Area_A2:,,Area 2,,"Plaza estación, s/n bajo / Gernika-Lumo",43.314515,-2.675856,ES:Euskotren:Zone:8:,,3,ES:Euskotren:StopPlace:2645:,,1,ES:Euskotren:Level:Level:1:,
ES:Euskotren:Place:2645_Area_A3:,,Area 3,,"Plaza estación, s/n bajo / Gernika-Lumo",43.314515,-2.675856,ES:Euskotren:Zone:8:,,3,ES:Euskotren:StopPlace:2645:,,1,ES:Euskotren:Level:Level:1:,
ES:Euskotren:Place:2645_Vestibulo_D1:,,Atondoa,,"Plaza estación, s/n bajo / Gernika-Lumo",43.3144,-2.676094,ES:Euskotren:Zone:8:,,3,ES:Euskotren:StopPlace:2645:,,1,ES:Euskotren:Level:Level:0:,
ES:Euskotren:Place:2645_Vestibulo_H1:,,Atondoa,,"Plaza estación, s/n bajo / Gernika-Lumo",43.314416,-2.676147,ES:Euskotren:Zone:8:,,3,ES:Euskotren:StopPlace:2645:,,1,ES:Euskotren:Level:Level:0:,
ES:Euskotren:Place:2645_Vestibulo_H2:,,Atondoa,,"Plaza estación, s/n bajo / Gernika-Lumo",43.314566,-2.676087,ES:Euskotren:Zone:8:,,3,ES:Euskotren:StopPlace:2645:,,1,ES:Euskotren:Level:Level:0:,
ES:Euskotren:Place:2646_Area_A1:,,Area 1,,"Avd. Cervantes, 8 bajo / Basauri",43.24048,-2.879442,ES:Euskotren:Zone:4:,,3,ES:Euskotren:StopPlace:2646:,,2,ES:Euskotren:Level:Level:0:,
ES:Euskotren:Place:2647_Area_A1:,,Area 1,,"Avd. de Añorga, 12 / Donostia-San Sebastián",43.29149,-1.994667,ES:Euskotren:Zone:42:,,3,ES:Euskotren:StopPlace:2647:,,1,ES:Euskotren:Level:Level:0:,
ES:Euskotren:Place:2647_Area_A2:,,Area 2,,"Avd. de Añorga, 12 / Donostia-San Sebastián",43.29149,-1.994667,ES:Euskotren:Zone:42:,,3,ES:Euskotren:StopPlace:2647:,,2,ES:Euskotren:Level:Level:0:,
ES:Euskotren:Place:2647_Vestibulo_D1:,,Atondoa,,"Avd. de Añorga, 12 / Donostia-San Sebastián",43.291369,-1.99439,ES:Euskotren:Zone:42:,,3,ES:Euskotren:StopPlace:2647:,,1,ES:Euskotren:Level:Level:0:,
ES:Euskotren:Place:2647_Vestibulo_H1:,,Atondoa,,"Avd. de Añorga, 12 / Donostia-San Sebastián",43.291369,-1.99439,ES:Euskotren:Zone:42:,,3,ES:Euskotren:StopPlace:2647:,,1,ES:Euskotren:Level:Level:0:,
ES:Euskotren:Place:2648_Area_A1:,,Area 1,,Plaza Sagastieder / Donostia-San Sebastián,43.314918,-1.954765,ES:Euskotren:Zone:42:,,3,ES:Euskotren:StopPlace:2648:,,2,ES:Euskotren:Level:Level:0:,
ES:Euskotren:Place:2648_Area_A2:,,Area 2,,Plaza Sagastieder / Donostia-San Sebastián,43.314918,-1.954765,ES:Euskotren:Zone:42:,,3,ES:Euskotren:StopPlace:2648:,,2,ES:Euskotren:Level:Level:0:,
ES:Euskotren:Place:2648_Area_A3:,,Area 3,,Plaza Sagastieder / Donostia-San Sebastián,43.314918,-1.954765,ES:Euskotren:Zone:42:,,3,ES:Euskotren:StopPlace:2648:,,2,ES:Euskotren:Level:Level:Minus1:,
ES:Euskotren:Place:2648_Area_A4:,,Area 4,,Plaza Sagastieder / Donostia-San Sebastián,43.314918,-1.954765,ES:Euskotren:Zone:42:,,3,ES:Euskotren:StopPlace:2648:,,2,ES:Euskotren:Level:Level:0:,
ES:Euskotren:Place:2648_Area_A5:,,Area 5,,Plaza Sagastieder / Donostia-San Sebastián,43.314918,-1.954765,ES:Euskotren:Zone:42:,,3,ES:Euskotren:StopPlace:2648:,,2,ES:Euskotren:Level:Level:0:,
ES:Euskotren:Place:2648_Area_A6:,,Area 6,,Plaza Sagastieder / Donostia-San Sebastián,43.314918,-1.954765,ES:Euskotren:Zone:42:,,3,ES:Euskotren:StopPlace:2648:,,2,ES:Euskotren:Level:Level:Minus1:,
ES:Euskotren:Place:2648_Vestibulo_D1:,,Sagastieder mezzanina,,Plaza Sagastieder / Donostia-San Sebastián,43.314918,-1.954765,ES:Euskotren:Zone:42:,,3,ES:Euskotren:StopPlace:2648:,,1,ES:Euskotren:Level:Level:Minus1:,
ES:Euskotren:Place:2648_Vestibulo_D2:,,Zarategi mezzanina,,Plaza Sagastieder / Donostia-San Sebastián,43.314918,-1.954765,ES:Euskotren:Zone:42:,,3,ES:Euskotren:StopPlace:2648:,,1,ES:Euskotren:Level:Level:Minus1:,
ES:Euskotren:Place:2648_Vestibulo_H1:,,Sagastieder mezzanina,,Plaza Sagastieder / Donostia-San Sebastián,43.314918,-1.954765,ES:Euskotren:Zone:42:,,3,ES:Euskotren:StopPlace:2648:,,1,ES:Euskotren:Level:Level:Minus1:,
ES:Euskotren:Place:2648_Vestibulo_H2:,,Zarategi mezzanina,,Plaza Sagastieder / Donostia-San Sebastián,43.314918,-1.954765,ES:Euskotren:Zone:42:,,3,ES:Euskotren:StopPlace:2648:,,1,ES:Euskotren:Level:Level:Minus1:,
ES:Euskotren:Place:2649_Vestibulo_H1:,,Atondoa,,Avda. de Iparralde / Irun,43.349479,-1.786391,ES:Euskotren:Zone:43:,,3,ES:Euskotren:StopPlace:2649:,,1,ES:Euskotren:Level:Level:0:,
ES:Euskotren:Place:2649_Vestibulo_H2:,,Atondoa,,Avda. de Iparralde / Irun,43.349479,-1.786391,ES:Euskotren:Zone:43:,,3,ES:Euskotren:StopPlace:2649:,,1,ES:Euskotren:Level:Level:0:,
ES:Euskotren:Place:2650_Area_A1:,,Area 1,,"Calle de José María Linazasoro, 9-11 / Mendaro",43.252268,-2.388089,ES:Euskotren:Zone:40:,,3,ES:Euskotren:StopPlace:2650:,,1,ES:Euskotren:Level:Level:1:,
ES:Euskotren:Place:2650_Area_A2:,,Area 2,,"Calle de José María Linazasoro, 9-11 / Mendaro",43.252268,-2.388089,ES:Euskotren:Zone:40:,,3,ES:Euskotren:StopPlace:2650:,,1,ES:Euskotren:Level:Level:1:,
ES:Euskotren:Place:2650_Vestibulo_D1:,,Atondoa,,"Calle de José María Linazasoro, 9-11 / Mendaro",43.252268,-2.388089,ES:Euskotren:Zone:40:,,3,ES:Euskotren:StopPlace:2650:,,1,ES:Euskotren:Level:Level:0:,
ES:Euskotren:Place:2650_Vestibulo_H1:,,Atondoa,,"Calle de José María Linazasoro, 9-11 / Mendaro",43.252268,-2.388089,ES:Euskotren:Zone:40:,,3,ES:Euskotren:StopPlace:2650:,,1,ES:Euskotren:Level:Level:0:,
ES:Euskotren:Place:2651_Area_A1:,,Area 1,,Autovía del Norte / Donostia-San Sebastián,43.278965,-2.006861,ES:Euskotren:Zone:42:,,3,ES:Euskotren:StopPlace:2651:,,1,ES:Euskotren:Level:Level:1:,
ES:Euskotren:Place:2651_Area_A2:,,Area 2,,Autovía del Norte / Donostia-San Sebastián,43.278965,-2.006861,ES:Euskotren:Zone:42:,,3,ES:Euskotren:StopPlace:2651:,,1,ES:Euskotren:Level:Level:1:,
ES:Euskotren:Place:2651_Area_A3:,,Area 3,,Autovía del Norte / Donostia-San Sebastián,43.278965,-2.006861,ES:Euskotren:Zone:42:,,3,ES:Euskotren:StopPlace:2651:,,2,ES:Euskotren:Level:Level:1:,
ES:Euskotren:Place:2651_Vestibulo_H1:,,Atondoa,,Autovía del Norte / Donostia-San Sebastián,43.278965,-2.006861,ES:Euskotren:Zone:42:,,3,ES:Euskotren:StopPlace:2651:,,1,ES:Euskotren:Level:Level:1:,
ES:Euskotren:Place:2652_Vestibulo_D1:,,Atondoa,,"Barrio de San Antolín, 27 / Zamudio",43.286647,-2.874218,ES:Euskotren:Zone:2:,,3,ES:Euskotren:StopPlace:2652:,,1,ES:Euskotren:Level:Level:0:,
ES:Euskotren:Place:2652_Vestibulo_H1:,,Atondoa,,"Barrio de San Antolín, 27 / Zamudio",43.286672,-2.874187,ES:Euskotren:Zone:2:,,3,ES:Euskotren:StopPlace:2652:,,1,ES:Euskotren:Level:Level:0:,
ES:Euskotren:Place:2653_Area_A1:,,Area 1,,"Calle de Erribera, 25 / Usurbil",43.268642,-2.053019,ES:Euskotren:Zone:42:,,3,ES:Euskotren:StopPlace:2653:,,1,ES:Euskotren:Level:Level:0:,
ES:Euskotren:Place:2653_Area_A2:,,Area 2,,"Calle de Erribera, 25 / Usurbil",43.268642,-2.053019,ES:Euskotren:Zone:42:,,3,ES:Euskotren:StopPlace:2653:,,1,ES:Euskotren:Level:Level:0:,
ES:Euskotren:Place:2653_Vestibulo_H1:,,Átondoa,,"Calle de Erribera, 25 / Usurbil",43.268642,-2.053019,ES:Euskotren:Zone:42:,,3,ES:Euskotren:StopPlace:2653:,,1,ES:Euskotren:Level:Level:0:,
ES:Euskotren:Place:2654_Area_A1:,,Area 1,,Carretera Madrid-Irún / Lezo,43.326705,-1.857721,ES:Euskotren:Zone:42:,,3,ES:Euskotren:StopPlace:2654:,,2,ES:Euskotren:Level:Level:0:,
ES:Euskotren:Place:2654_Area_A2:,,Area 2,,Carretera Madrid-Irún / Lezo,43.326705,-1.857721,ES:Euskotren:Zone:42:,,3,ES:Euskotren:StopPlace:2654:,,2,ES:Euskotren:Level:Level:0:,
ES:Euskotren:Place:2655_Vestibulo_H1:,,Atondoa,,"Barrio de Okango, 31 / Zaldibar",43.169738,-2.552209,ES:Euskotren:Zone:7:,,3,ES:Euskotren:StopPlace:2655:,,1,ES:Euskotren:Level:Level:0:,
ES:Euskotren:Place:2656_Area_A1:,,Area 1,,Plaza Untzaga / Eibar,43.184564,-2.47457,ES:Euskotren:Zone:40:,,3,ES:Euskotren:StopPlace:2656:,,1,ES:Euskotren:Level:Level:0:,
ES:Euskotren:Place:2656_Vestibulo_D1:,,Atondoa,,Plaza Untzaga / Eibar,43.184564,-2.47457,ES:Euskotren:Zone:40:,,3,ES:Euskotren:StopPlace:2656:,,1,ES:Euskotren:Level:Level:0:,
ES:Euskotren:Place:2656_Vestibulo_H1:,,Atondoa,,Plaza Untzaga / Eibar,43.184564,-2.47457,ES:Euskotren:Zone:40:,,3,ES:Euskotren:StopPlace:2656:,,1,ES:Euskotren:Level:Level:0:,
ES:Euskotren:Place:2657_Area_A1:,,Area 1,,"Barrio de Zugastieta, 25 / Muxika",43.252053,-2.692753,ES:Euskotren:Zone:8:,,3,ES:Euskotren:StopPlace:2657:,,1,ES:Euskotren:Level:Level:0:,
ES:Euskotren:Place:2657_Area_A2:,,Area 2,,"Barrio de Zugastieta, 25 / Muxika",43.252053,-2.692753,ES:Euskotren:Zone:8:,,3,ES:Euskotren:StopPlace:2657:,,1,ES:Euskotren:Level:Level:0:,
ES:Euskotren:Place:2657_Area_A3:,,Area 3,,"Barrio de Zugastieta, 25 / Muxika",43.252053,-2.692753,ES:Euskotren:Zone:8:,,3,ES:Euskotren:StopPlace:2657:,,1,ES:Euskotren:Level:Level:0:,
ES:Euskotren:Place:2658_Vestibulo_H1:,,Atondoa,,"Av de Pedro Muguruza, 6-8 / Elgoibar",43.217761,-2.408572,ES:Euskotren:Zone:40:,,3,ES:Euskotren:StopPlace:2658:,,1,ES:Euskotren:Level:Level:0:,
ES:Euskotren:Place:2661_Area_A1:,,Area 1,,"Calle de Oletxe, 48 / Usansolo",43.217729,-2.821741,ES:Euskotren:Zone:4:,,3,ES:Euskotren:StopPlace:2661:,,1,ES:Euskotren:Level:Level:0:,
ES:Euskotren:Place:2661_Area_A2:,,Area 2,,"Calle de Oletxe, 48 / Usansolo",43.217729,-2.821741,ES:Euskotren:Zone:4:,,3,ES:Euskotren:StopPlace:2661:,,1,ES:Euskotren:Level:Level:0:,
ES:Euskotren:Place:2661_Vestibulo_D1:,,Atondoa,,"Calle de Oletxe, 48 / Usansolo",43.217729,-2.821741,ES:Euskotren:Zone:4:,,3,ES:Euskotren:StopPlace:2661:,,1,ES:Euskotren:Level:Level:0:,
ES:Euskotren:Place:2663_Area_A1:,,Area 1,,Avda. Pau Casals / Bilbao,43.258567,-2.897474,ES:Euskotren:Zone:3:,,3,ES:Euskotren:StopPlace:2663:,,2,ES:Euskotren:Level:Level:0:,
ES:Euskotren:Place:2663_Area_A2:,,Area 2,,Avda. Pau Casals / Bilbao,43.258567,-2.897474,ES:Euskotren:Zone:3:,,3,ES:Euskotren:StopPlace:2663:,,2,ES:Euskotren:Level:Level:0:,
ES:Euskotren:Place:2663_Area_A3:,,Area 3,,Avda. Pau Casals / Bilbao,43.258567,-2.897474,ES:Euskotren:Zone:3:,,3,ES:Euskotren:StopPlace:2663:,,2,ES:Euskotren:Level:Level:0:,
ES:Euskotren:Place:2663_Area_A4:,,Area 4,,Avda. Pau Casals / Bilbao,43.258567,-2.897474,ES:Euskotren:Zone:3:,,3,ES:Euskotren:StopPlace:2663:,,1,ES:Euskotren:Level:Level:Minus1:,
ES:Euskotren:Place:2663_Area_A5:,,Area 5,,Avda. Pau Casals / Bilbao,43.258567,-2.897474,ES:Euskotren:Zone:3:,,3,ES:Euskotren:StopPlace:2663:,,2,ES:Euskotren:Level:Level:0:,
ES:Euskotren:Place:2663_Area_A6:,,Area 6,,Avda. Pau Casals / Bilbao,43.258567,-2.897474,ES:Euskotren:Zone:3:,,3,ES:Euskotren:StopPlace:2663:,,2,ES:Euskotren:Level:Level:Minus1:,
ES:Euskotren:Place:2663_Vestibulo_D1:,,Atondoa,,Avda. Pau Casals / Bilbao,43.258567,-2.897474,ES:Euskotren:Zone:3:,,3,ES:Euskotren:StopPlace:2663:,,1,ES:Euskotren:Level:Level:Minus1:,
ES:Euskotren:Place:2663_Vestibulo_D2:,,Atondoa,,Avda. Pau Casals / Bilbao,43.258567,-2.897474,ES:Euskotren:Zone:3:,,3,ES:Euskotren:StopPlace:2663:,,2,ES:Euskotren:Level:Level:Minus1:,
ES:Euskotren:Place:2663_Vestibulo_H1:,,Atondoa,,Avda. Pau Casals / Bilbao,43.258567,-2.897474,ES:Euskotren:Zone:3:,,3,ES:Euskotren:StopPlace:2663:,,1,ES:Euskotren:Level:Level:Minus1:,
ES:Euskotren:Place:2663_Vestibulo_H2:,,Atondoa,,Avda. Pau Casals / Bilbao,43.258567,-2.897474,ES:Euskotren:Zone:3:,,3,ES:Euskotren:StopPlace:2663:,,2,ES:Euskotren:Level:Level:Minus1:,
ES:Euskotren:Place:2663_Vestibulo_H3:,,Atondoa,,Avda. Pau Casals / Bilbao,43.258567,-2.897474,ES:Euskotren:Zone:3:,,3,ES:Euskotren:StopPlace:2663:,,1,ES:Euskotren:Level:Level:Minus2:,
ES:Euskotren:Place:2663_Vestibulo_H4:,,Atondoa,,Avda. Pau Casals / Bilbao,43.258567,-2.897474,ES:Euskotren:Zone:3:,,3,ES:Euskotren:StopPlace:2663:,,1,ES:Euskotren:Level:Level:Minus2:,
ES:Euskotren:Place:2664_Vestibulo_D1:,,Atondoa,,"Calle de Lapurdi, 2, bajo / Zarautz",43.284187,-2.170854,ES:Euskotren:Zone:41:,,3,ES:Euskotren:StopPlace:2664:,,1,ES:Euskotren:Level:Level:0:,
ES:Euskotren:Place:2664_Vestibulo_H1:,,Atondoa,,"Calle de Lapurdi, 2, bajo / Zarautz",43.284187,-2.170854,ES:Euskotren:Zone:41:,,3,ES:Euskotren:StopPlace:2664:,,1,ES:Euskotren:Level:Level:0:,
ES:Euskotren:Place:2665_Area_A1:,,Atondoa,,"Avda. Pablo Iglesias, 16 / Errenteria",43.311197,-1.899344,ES:Euskotren:Zone:42:,,3,ES:Euskotren:StopPlace:2665:,,1,ES:Euskotren:Level:Level:0:,
ES:Euskotren:Place:2665_Area_A2:,,Area 2,,"Avda. Pablo Iglesias, 16 / Errenteria",43.311197,-1.899344,ES:Euskotren:Zone:42:,,3,ES:Euskotren:StopPlace:2665:,,1,ES:Euskotren:Level:Level:0:,
ES:Euskotren:Place:2665_Vestibulo_D1:,,Atondoa,,"Avda. Pablo Iglesias, 16 / Errenteria",43.311197,-1.899344,ES:Euskotren:Zone:42:,,3,ES:Euskotren:StopPlace:2665:,,1,ES:Euskotren:Level:Level:0:,
ES:Euskotren:Place:2665_Vestibulo_H1:,,Atondoa,,"Avda. Pablo Iglesias, 16 / Errenteria",43.311197,-1.899344,ES:Euskotren:Zone:42:,,3,ES:Euskotren:StopPlace:2665:,,1,ES:Euskotren:Level:Level:0:,
ES:Euskotren:Place:2666_Vestibulo_D1:,,Atondoa,,"Calle Izelaieta, 21 / Ermua",43.184656,-2.501242,ES:Euskotren:Zone:40:,,3,ES:Euskotren:StopPlace:2666:,,1,ES:Euskotren:Level:Level:0:,
ES:Euskotren:Place:2666_Vestibulo_H1:,,Atondoa,,"Calle Izelaieta, 21 / Ermua",43.184656,-2.501242,ES:Euskotren:Zone:40:,,3,ES:Euskotren:StopPlace:2666:,,1,ES:Euskotren:Level:Level:0:,
ES:Euskotren:Place:2667_Area_A1:,,Area 1,,"Zumalakarregi kalea, 8 / Pasaia",43.318176,-1.917845,ES:Euskotren:Zone:42:,,3,ES:Euskotren:StopPlace:2667:,,2,ES:Euskotren:Level:Level:0:,
ES:Euskotren:Place:2667_Area_A2:,,Area 2,,"Zumalakarregi kalea, 8 / Pasaia",43.318176,-1.917845,ES:Euskotren:Zone:42:,,3,ES:Euskotren:StopPlace:2667:,,2,ES:Euskotren:Level:Level:0:,
ES:Euskotren:Place:2667_Area_A3:,,Area 3,,"Zumalakarregi kalea, 8 / Pasaia",43.318176,-1.917845,ES:Euskotren:Zone:42:,,3,ES:Euskotren:StopPlace:2667:,,1,ES:Euskotren:Level:Level:1:,
ES:Euskotren:Place:2667_Area_A4:,,Area 4,,"Zumalakarregi kalea, 8 / Pasaia",43.318176,-1.917845,ES:Euskotren:Zone:42:,,3,ES:Euskotren:StopPlace:2667:,,1,ES:Euskotren:Level:Level:1:,
ES:Euskotren:Place:2667_Vestibulo_D1:,,Atondoa,,"Zumalakarregi kalea, 8 / Pasaia",43.318176,-1.917845,ES:Euskotren:Zone:42:,,3,ES:Euskotren:StopPlace:2667:,,1,ES:Euskotren:Level:Level:0:,
ES:Euskotren:Place:2667_Vestibulo_H1:,,Atondoa,,"Zumalakarregi kalea, 8 / Pasaia",43.318176,-1.917845,ES:Euskotren:Zone:42:,,3,ES:Euskotren:StopPlace:2667:,,1,ES:Euskotren:Level:Level:0:,
ES:Euskotren:Quay:1468_Plataforma_Q1:,,Atxuri,,"Calle Atxuri, 5-6 / Bilbao",43.254113,-2.921513,ES:Euskotren:Zone:20:,,0,ES:Euskotren:StopPlace:1468:,,0,ES:Euskotren:Level:Level:1:,
ES:Euskotren:Quay:1469_Plataforma_Q1:,,Uribitarte,,Calle Uribitarte / Bilbao,43.266303,-2.928733,ES:Euskotren:Zone:20:,,0,ES:Euskotren:StopPlace:1469:,,0,ES:Euskotren:Level:Level:1:,
ES:Euskotren:Quay:1469_Plataforma_Q2:,,Uribitarte,,Calle Uribitarte / Bilbao,43.266303,-2.928733,ES:Euskotren:Zone:20:,,0,ES:Euskotren:StopPlace:1469:,,0,ES:Euskotren:Level:Level:1:,
ES:Euskotren:Quay:1470_Plataforma_Q1:,,San Mames,,Av Juan Antonio Zunzunegui / Bilbao,43.261742,-2.948939,ES:Euskotren:Zone:20:,,0,ES:Euskotren:StopPlace:1470:,,0,ES:Euskotren:Level:Level:1:,
ES:Euskotren:Quay:1470_Plataforma_Q2:,,San Mames,,Av Juan Antonio Zunzunegui / Bilbao,43.261742,-2.948939,ES:Euskotren:Zone:20:,,0,ES:Euskotren:StopPlace:1470:,,0,ES:Euskotren:Level:Level:1:,
ES:Euskotren:Quay:1471_Plataforma_Q1:,,Abando,,"Calle Navarra, 5 / Bilbao",43.261052,-2.926658,ES:Euskotren:Zone:20:,,0,ES:Euskotren:StopPlace:1471:,,0,ES:Euskotren:Level:Level:1:,
ES:Euskotren:Quay:1472_Plataforma_Q1:,,Hospital/Ospitalea,,Calle Gurtubay / Bilbao,43.259796,-2.951244,ES:Euskotren:Zone:20:,,0,ES:Euskotren:StopPlace:1472:,,0,ES:Euskotren:Level:Level:1:,
ES:Euskotren:Quay:1472_Plataforma_Q2:,,Hospital/Ospitalea,,Calle Gurtubay / Bilbao,43.259796,-2.951244,ES:Euskotren:Zone:20:,,0,ES:Euskotren:StopPlace:1472:,,0,ES:Euskotren:Level:Level:1:,
ES:Euskotren:Quay:1473_Plataforma_Q1:,,Ribera,,Calle de la Ribera / Bilbao,43.255795,-2.924369,ES:Euskotren:Zone:20:,,0,ES:Euskotren:StopPlace:1473:,,0,ES:Euskotren:Level:Level:1:,
ES:Euskotren:Quay:1474_Plataforma_Q1:,,Sabino Arana,,"Av de Sabino Arana, 8 / Bilbao",43.263192,-2.946222,ES:Euskotren:Zone:20:,,0,ES:Euskotren:StopPlace:1474:,,0,ES:Euskotren:Level:Level:1:,
ES:Euskotren:Quay:1474_Plataforma_Q2:,,Sabino Arana,,"Av de Sabino Arana, 8 / Bilbao",43.263192,-2.946222,ES:Euskotren:Zone:20:,,0,ES:Euskotren:StopPlace:1474:,,0,ES:Euskotren:Level:Level:1:,
ES:Euskotren:Quay:1475_Plataforma_Q1:,,Abandoibarra,,Av de Abandoibarra / Bilbao,43.268585,-2.9407,ES:Euskotren:Zone:20:,,0,ES:Euskotren:StopPlace:1475:,,0,ES:Euskotren:Level:Level:1:,
ES:Euskotren:Quay:1475_Plataforma_Q2:,,Abandoibarra,,Av de Abandoibarra / Bilbao,43.268585,-2.9407,ES:Euskotren:Zone:20:,,0,ES:Euskotren:StopPlace:1475:,,0,ES:Euskotren:Level:Level:1:,
ES:Euskotren:Quay:1476_Plataforma_Q1:,,Guggenheim,,Av de Abandoibarra / Bilbao,43.2687,-2.936763,ES:Euskotren:Zone:20:,,0,ES:Euskotren:StopPlace:1476:,,0,ES:Euskotren:Level:Level:1:,
ES:Euskotren:Quay:1476_Plataforma_Q2:,,Guggenheim,,Av de Abandoibarra / Bilbao,43.2687,-2.936763,ES:Euskotren:Zone:20:,,0,ES:Euskotren:StopPlace:1476:,,0,ES:Euskotren:Level:Level:1:,
ES:Euskotren:Quay:1477_Plataforma_Q2:,,La Casilla,,"C/ Autonomía, 56 / Bilbao",43.257767,-2.944349,ES:Euskotren:Zone:20:,,0,ES:Euskotren:StopPlace:1477:,,0,ES:Euskotren:Level:Level:1:,
ES:Euskotren:Quay:1478_Plataforma_Q1:,,Pio Baroja,,"Uribitarte Ibiltokia, 1 / Bilbao",43.264483,-2.926262,ES:Euskotren:Zone:20:,,0,ES:Euskotren:StopPlace:1478:,,0,ES:Euskotren:Level:Level:1:,
ES:Euskotren:Quay:1478_Plataforma_Q2:,,Pio Baroja,,"Uribitarte Ibiltokia, 1 / Bilbao",43.264483,-2.926262,ES:Euskotren:Zone:20:,,0,ES:Euskotren:StopPlace:1478:,,0,ES:Euskotren:Level:Level:1:,
ES:Euskotren:Quay:1479_Plataforma_Q1:,,Euskalduna,,Av de Abandoibarra / Bilbao,43.266261,-2.943894,ES:Euskotren:Zone:20:,,0,ES:Euskotren:StopPlace:1479:,,0,ES:Euskotren:Level:Level:1:,
ES:Euskotren:Quay:1479_Plataforma_Q2:,,Euskalduna,,Av de Abandoibarra / Bilbao,43.266261,-2.943894,ES:Euskotren:Zone:20:,,0,ES:Euskotren:StopPlace:1479:,,0,ES:Euskotren:Level:Level:1:,
ES:Euskotren:Quay:1480_Plataforma_Q1:,,Arriaga,,"Calle de la Ribera, 4 / Bilbao",43.25907,-2.925938,ES:Euskotren:Zone:20:,,0,ES:Euskotren:StopPlace:1480:,,0,ES:Euskotren:Level:Level:1:,
ES:Euskotren:Quay:1480_Plataforma_Q2:,,Arriaga,,"Calle de la Ribera, 4 / Bilbao",43.25907,-2.925938,ES:Euskotren:Zone:20:,,0,ES:Euskotren:StopPlace:1480:,,0,ES:Euskotren:Level:Level:1:,
ES:Euskotren:Quay:1481_Plataforma_Q1:,,Basurto,,,43.257993,-2.949072,ES:Euskotren:Zone:20:,,0,ES:Euskotren:StopPlace:1481:,,0,ES:Euskotren:Level:Level:1:,
ES:Euskotren:Quay:1481_Plataforma_Q2:,,Basurto,,,43.257993,-2.949072,ES:Euskotren:Zone:20:,,0,ES:Euskotren:StopPlace:1481:,,0,ES:Euskotren:Level:Level:1:,
ES:Euskotren:Quay:1559_Plataforma_Q1:,,Gernikako Arbola,,Gernikako Arbola Kalea / Vitoria-Gasteiz,42.86482,-2.68086,ES:Euskotren:Zone:70:,,0,ES:Euskotren:StopPlace:1559:,,0,ES:Euskotren:Level:Level:1:,
ES:Euskotren:Quay:1559_Plataforma_Q2:,,Gernikako Arbola,,Gernikako Arbola Kalea / Vitoria-Gasteiz,42.86482,-2.68086,ES:Euskotren:Zone:70:,,0,ES:Euskotren:StopPlace:1559:,,0,ES:Euskotren:Level:Level:1:,
ES:Euskotren:Quay:1560_Plataforma_Q1:,,Abetxuko,,Calle Araka / Vitoria-Gasteiz,42.876277,-2.679599,ES:Euskotren:Zone:70:,,0,ES:Euskotren:StopPlace:1560:,,0,ES:Euskotren:Level:Level:1:,
ES:Euskotren:Quay:1560_Plataforma_Q2:,,Abetxuko,,Calle Araka / Vitoria-Gasteiz,42.876277,-2.679599,ES:Euskotren:Zone:70:,,0,ES:Euskotren:StopPlace:1560:,,0,ES:Euskotren:Level:Level:1:,
ES:Euskotren:Quay:1561_Plataforma_Q1:,,Lovaina,,"Magdalena Kalea, 12 / Vitoria-Gasteiz",42.846246,-2.67851,ES:Euskotren:Zone:70:,,0,ES:Euskotren:StopPlace:1561:,,0,ES:Euskotren:Level:Level:1:,
ES:Euskotren:Quay:1561_Plataforma_Q2:,,Lovaina,,"Magdalena Kalea, 12 / Vitoria-Gasteiz",42.846246,-2.67851,ES:Euskotren:Zone:70:,,0,ES:Euskotren:StopPlace:1561:,,0,ES:Euskotren:Level:Level:1:,
ES:Euskotren:Quay:1562_Plataforma_Q1:,,Landaberde,,"Landaberde Kalea, 15-29 / Vitoria-Gasteiz",42.866206,-2.698489,ES:Euskotren:Zone:70:,,0,ES:Euskotren:StopPlace:1562:,,0,ES:Euskotren:Level:Level:1:,
ES:Euskotren:Quay:1562_Plataforma_Q2:,,Landaberde,,"Landaberde Kalea, 15-29 / Vitoria-Gasteiz",42.866206,-2.698489,ES:Euskotren:Zone:70:,,0,ES:Euskotren:StopPlace:1562:,,0,ES:Euskotren:Level:Level:1:,
ES:Euskotren:Quay:1563_Plataforma_Q1:,,Forondako Atea/Portal De Foronda,,"Forondako Atea, 32 / Vitoria-Gasteiz",42.862903,-2.684497,ES:Euskotren:Zone:70:,,0,ES:Euskotren:StopPlace:1563:,,0,ES:Euskotren:Level:Level:1:,
ES:Euskotren:Quay:1563_Plataforma_Q2:,,Forondako Atea/Portal De Foronda,,"Forondako Atea, 32 / Vitoria-Gasteiz",42.862903,-2.684497,ES:Euskotren:Zone:70:,,0,ES:Euskotren:StopPlace:1563:,,0,ES:Euskotren:Level:Level:1:,
ES:Euskotren:Quay:1564_Plataforma_Q1:,,Legebiltzarra/Parlamento,,"Alaba Jeneralaren Kalea, 1 / Vitoria-Gasteiz",42.845328,-2.674377,ES:Euskotren:Zone:70:,,0,ES:Euskotren:StopPlace:1564:,,0,ES:Euskotren:Level:Level:1:,
ES:Euskotren:Quay:1564_Plataforma_Q2:,,Legebiltzarra/Parlamento,,"Alaba Jeneralaren Kalea, 1 / Vitoria-Gasteiz",42.845328,-2.674377,ES:Euskotren:Zone:70:,,0,ES:Euskotren:StopPlace:1564:,,0,ES:Euskotren:Level:Level:1:,
ES:Euskotren:Quay:1565_Plataforma_Q1:,,Ibaiondo,,"Landaberde Kalea, 4-10 / Vitoria-Gasteiz",42.864798,-2.702087,ES:Euskotren:Zone:70:,,0,ES:Euskotren:StopPlace:1565:,,0,ES:Euskotren:Level:Level:1:,
ES:Euskotren:Quay:1565_Plataforma_Q2:,,Ibaiondo,,"Landaberde Kalea, 4-10 / Vitoria-Gasteiz",42.864798,-2.702087,ES:Euskotren:Zone:70:,,0,ES:Euskotren:StopPlace:1565:,,0,ES:Euskotren:Level:Level:1:,
ES:Euskotren:Quay:1566_Plataforma_Q1:,,Europa,,"Gasteiz Hiribidea, 74 / Vitoria-Gasteiz",42.852541,-2.680251,ES:Euskotren:Zone:70:,,0,ES:Euskotren:StopPlace:1566:,,0,ES:Euskotren:Level:Level:1:,
ES:Euskotren:Quay:1566_Plataforma_Q2:,,Europa,,"Gasteiz Hiribidea, 74 / Vitoria-Gasteiz",42.852541,-2.680251,ES:Euskotren:Zone:70:,,0,ES:Euskotren:StopPlace:1566:,,0,ES:Euskotren:Level:Level:1:,
ES:Euskotren:Quay:1567_Plataforma_Q1:,,Lakuabizkarra,,"Wellingtongo Dukea Kalea, 27 / Vitoria-Gasteiz",42.863127,-2.694579,ES:Euskotren:Zone:70:,,0,ES:Euskotren:StopPlace:1567:,,0,ES:Euskotren:Level:Level:1:,
ES:Euskotren:Quay:1567_Plataforma_Q2:,,Lakuabizkarra,,"Wellingtongo Dukea Kalea, 27 / Vitoria-Gasteiz",42.863127,-2.694579,ES:Euskotren:Zone:70:,,0,ES:Euskotren:StopPlace:1567:,,0,ES:Euskotren:Level:Level:1:,
ES:Euskotren:Quay:1568_Plataforma_Q1:,,Kristo,,"Calle del Cristo, 2 / Vitoria-Gasteiz",42.874085,-2.6776,ES:Euskotren:Zone:70:,,0,ES:Euskotren:StopPlace:1568:,,0,ES:Euskotren:Level:Level:1:,
ES:Euskotren:Quay:1569_Plataforma_Q1:,,Artapadura,,"Arriagako Atea, 76 / Vitoria-Gasteiz",42.869514,-2.680272,ES:Euskotren:Zone:70:,,0,ES:Euskotren:StopPlace:1569:,,0,ES:Euskotren:Level:Level:1:,
ES:Euskotren:Quay:1569_Plataforma_Q2:,,Artapadura,,"Arriagako Atea, 76 / Vitoria-Gasteiz",42.869514,-2.680272,ES:Euskotren:Zone:70:,,0,ES:Euskotren:StopPlace:1569:,,0,ES:Euskotren:Level:Level:1:,
ES:Euskotren:Quay:1570_Plataforma_Q1:,,Arriaga,,"Arriagako Atea, 64 / Vitoria-Gasteiz",42.866638,-2.678658,ES:Euskotren:Zone:70:,,0,ES:Euskotren:StopPlace:1570:,,0,ES:Euskotren:Level:Level:1:,
ES:Euskotren:Quay:1570_Plataforma_Q2:,,Arriaga,,"Arriagako Atea, 64 / Vitoria-Gasteiz",42.866638,-2.678658,ES:Euskotren:Zone:70:,,0,ES:Euskotren:StopPlace:1570:,,0,ES:Euskotren:Level:Level:1:,
ES:Euskotren:Quay:1571_Plataforma_Q1:,,Intermodal,,"Forondako Atea, 7 / Vitoria-Gasteiz",42.86036,-2.682798,ES:Euskotren:Zone:70:,,0,ES:Euskotren:StopPlace:1571:,,0,ES:Euskotren:Level:Level:1:,
ES:Euskotren:Quay:1571_Plataforma_Q2:,,Intermodal,,"Forondako Atea, 7 / Vitoria-Gasteiz",42.86036,-2.682798,ES:Euskotren:Zone:70:,,0,ES:Euskotren:StopPlace:1571:,,0,ES:Euskotren:Level:Level:1:,
ES:Euskotren:Quay:1572_Plataforma_Q1:,,Honduras,,"Honduras Kalea, 5-7 / Vitoria-Gasteiz",42.857247,-2.681146,ES:Euskotren:Zone:70:,,0,ES:Euskotren:StopPlace:1572:,,0,ES:Euskotren:Level:Level:1:,
ES:Euskotren:Quay:1572_Plataforma_Q2:,,Honduras,,"Honduras Kalea, 5-7 / Vitoria-Gasteiz",42.857247,-2.681146,ES:Euskotren:Zone:70:,,0,ES:Euskotren:StopPlace:1572:,,0,ES:Euskotren:Level:Level:1:,
ES:Euskotren:Quay:1573_Plataforma_Q1:,,Angulema,,"Angulema Kalea, 5 / Vitoria-Gasteiz",42.84336,-2.667699,ES:Euskotren:Zone:70:,,0,ES:Euskotren:StopPlace:1573:,,0,ES:Euskotren:Level:Level:1:,
ES:Euskotren:Quay:1573_Plataforma_Q2:,,Angulema,,"Angulema Kalea, 5 / Vitoria-Gasteiz",42.84336,-2.667699,ES:Euskotren:Zone:70:,,0,ES:Euskotren:StopPlace:1573:,,0,ES:Euskotren:Level:Level:1:,
ES:Euskotren:Quay:1574_Plataforma_Q1:,,Euskal Herria,,Euskal Herria Bulebarra / Vitoria-Gasteiz,42.85806,-2.685054,ES:Euskotren:Zone:70:,,0,ES:Euskotren:StopPlace:1574:,,0,ES:Euskotren:Level:Level:1:,
ES:Euskotren:Quay:1574_Plataforma_Q2:,,Euskal Herria,,Euskal Herria Bulebarra / Vitoria-Gasteiz,42.85806,-2.685054,ES:Euskotren:Zone:70:,,0,ES:Euskotren:StopPlace:1574:,,0,ES:Euskotren:Level:Level:1:,
ES:Euskotren:Quay:1575_Plataforma_Q1:,,Antso Jakituna/Sancho El Sabio,,Antso Jakitunaren Kalea / Vitoria-Gasteiz,42.848114,-2.679946,ES:Euskotren:Zone:70:,,0,ES:Euskotren:StopPlace:1575:,,0,ES:Euskotren:Level:Level:1:,
ES:Euskotren:Quay:1575_Plataforma_Q2:,,Antso Jakituna/Sancho El Sabio,,Antso Jakitunaren Kalea / Vitoria-Gasteiz,42.848114,-2.679946,ES:Euskotren:Zone:70:,,0,ES:Euskotren:StopPlace:1575:,,0,ES:Euskotren:Level:Level:1:,
ES:Euskotren:Quay:1576_Plataforma_Q1:,,Wellington,,"Wellingtongo Dukea Kalea, 23 / Vitoria-Gasteiz",42.85995,-2.69232,ES:Euskotren:Zone:70:,,0,ES:Euskotren:StopPlace:1576:,,0,ES:Euskotren:Level:Level:1:,
ES:Euskotren:Quay:1576_Plataforma_Q2:,,Wellington,,"Wellingtongo Dukea Kalea, 23 / Vitoria-Gasteiz",42.85995,-2.69232,ES:Euskotren:Zone:70:,,0,ES:Euskotren:StopPlace:1576:,,0,ES:Euskotren:Level:Level:1:,
ES:Euskotren:Quay:1577_Plataforma_Q1:,,Kañabenta,,Kainabenta Plaza / Vitoria-Gasteiz,42.873816,-2.68126,ES:Euskotren:Zone:70:,,0,ES:Euskotren:StopPlace:1577:,,0,ES:Euskotren:Level:Level:1:,
ES:Euskotren:Quay:1577_Plataforma_Q2:,,Kañabenta,,Kainabenta Plaza / Vitoria-Gasteiz,42.873816,-2.68126,ES:Euskotren:Zone:70:,,0,ES:Euskotren:StopPlace:1577:,,0,ES:Euskotren:Level:Level:1:,
ES:Euskotren:Quay:1578_Plataforma_Q1:,,Txagorritxu,,"Ronda de Circunvalación, 2-20 / Vitoria-Gasteiz",42.856916,-2.689028,ES:Euskotren:Zone:70:,,0,ES:Euskotren:StopPlace:1578:,,0,ES:Euskotren:Level:Level:1:,
ES:Euskotren:Quay:1578_Plataforma_Q2:,,Txagorritxu,,"Ronda de Circunvalación, 2-20 / Vitoria-Gasteiz",42.856916,-2.689028,ES:Euskotren:Zone:70:,,0,ES:Euskotren:StopPlace:1578:,,0,ES:Euskotren:Level:Level:1:,
ES:Euskotren:Quay:1580_Plataforma_Q1:,,La Escontrilla,,"Calle de Funikular, 30 / Valle de Trápaga-Trapagaran",43.301233,-3.04203,ES:Euskotren:Zone:50:,,0,ES:Euskotren:StopPlace:1580:,,0,ES:Euskotren:Level:Level:1:,
ES:Euskotren:Quay:1581_Plataforma_Q1:,,Larreineta,,"Barrio Reineta, 59 / Valle de Trápaga-Trapagaran",43.292442,-3.049087,ES:Euskotren:Zone:50:,,0,ES:Euskotren:StopPlace:1581:,,0,ES:Euskotren:Level:Level:1:,
ES:Euskotren:Quay:2576_Plataforma_Q1:,,Lutxana-Erandio,,San Jose de Lutxana Auzoa / Erandio,43.291154,-2.969765,ES:Euskotren:Zone:2:,,0,ES:Euskotren:StopPlace:2576:,,1,ES:Euskotren:Level:Level:0:,
ES:Euskotren:Quay:2577_Plataforma_Q1:,,Zazpikaleak/Casco Viejo-Bilbao,,Plazuela de San Nicolás / Bilbao,43.260176,-2.921842,ES:Euskotren:Zone:3:,,0,ES:Euskotren:StopPlace:2577:,,1,ES:Euskotren:Level:Level:1:,
ES:Euskotren:Quay:2577_Plataforma_Q2:,,Zazpikaleak/Casco Viejo-Bilbao,,Plazuela de San Nicolás / Bilbao,43.26021,-2.921805,ES:Euskotren:Zone:3:,,0,ES:Euskotren:StopPlace:2577:,,1,ES:Euskotren:Level:Level:1:,
ES:Euskotren:Quay:2579_Plataforma_Q1:,,Bermeo,,"Santamañe Kalea, s/n bajo / Bermeo",43.417659,-2.723231,ES:Euskotren:Zone:8:,,0,ES:Euskotren:StopPlace:2579:,,1,ES:Euskotren:Level:Level:Minus1:,
ES:Euskotren:Quay:2580_Plataforma_Q1:,,Lasarte-Oria,,"Avd. Donostia, 1 bajo / Lasarte-Oria",43.271043,-2.020272,ES:Euskotren:Zone:42:,,0,ES:Euskotren:StopPlace:2580:,,1,ES:Euskotren:Level:Level:0:,
ES:Euskotren:Quay:2580_Plataforma_Q2:,,Lasarte-Oria,,"Avd. Donostia, 1 bajo / Lasarte-Oria",43.271043,-2.020272,ES:Euskotren:Zone:42:,,0,ES:Euskotren:StopPlace:2580:,,1,ES:Euskotren:Level:Level:0:,
ES:Euskotren:Quay:2581_Plataforma_Q1:,,Amara-Donostia,,"Plaza Easo, 9 / Donostia-San Sebastián",43.312394,-1.981561,ES:Euskotren:Zone:42:,,0,ES:Euskotren:StopPlace:2581:,,2,ES:Euskotren:Level:Level:0:,
ES:Euskotren:Quay:2581_Plataforma_Q2:,,Amara-Donostia,,"Plaza Easo, 9 / Donostia-San Sebastián",43.312781,-1.981583,ES:Euskotren:Zone:42:,,0,ES:Euskotren:StopPlace:2581:,,1,ES:Euskotren:Level:Level:0:,
ES:Euskotren:Quay:2581_Plataforma_Q3:,,Amara-Donostia,,"Plaza Easo, 9 / Donostia-San Sebastián",43.312828,-1.981589,ES:Euskotren:Zone:42:,,0,ES:Euskotren:StopPlace:2581:,,1,ES:Euskotren:Level:Level:0:,
ES:Euskotren:Quay:2581_Plataforma_Q4:,,Amara-Donostia,,"Plaza Easo, 9 / Donostia-San Sebastián",43.312824,-1.981487,ES:Euskotren:Zone:42:,,0,ES:Euskotren:StopPlace:2581:,,1,ES:Euskotren:Level:Level:0:,
ES:Euskotren:Quay:2581_Plataforma_Q5:,,Amara-Donostia,,"Plaza Easo, 9 / Donostia-San Sebastián",43.312878,-1.981465,ES:Euskotren:Zone:42:,,0,ES:Euskotren:StopPlace:2581:,,1,ES:Euskotren:Level:Level:0:,
ES:Euskotren:Quay:2581_Plataforma_Q6:,,Amara-Donostia,,"Plaza Easo, 9 / Donostia-San Sebastián",43.312878,-1.981465,ES:Euskotren:Zone:42:,,0,ES:Euskotren:StopPlace:2581:,,1,ES:Euskotren:Level:Level:0:,
ES:Euskotren:Quay:2581_Plataforma_Q7:,,Amara-Donostia,,"Plaza Easo, 9 / Donostia-San Sebastián",43.312878,-1.981465,ES:Euskotren:Zone:42:,,0,ES:Euskotren:StopPlace:2581:,,1,ES:Euskotren:Level:Level:0:,
ES:Euskotren:Quay:2581_Plataforma_Q8:,,Amara-Donostia,,"Plaza Easo, 9 / Donostia-San Sebastián",43.312878,-1.981465,ES:Euskotren:Zone:42:,,0,ES:Euskotren:StopPlace:2581:,,1,ES:Euskotren:Level:Level:0:,
ES:Euskotren:Quay:2581_Plataforma_Q9:,,Amara-Donostia,,"Plaza Easo, 9 / Donostia-San Sebastián",43.312878,-1.981465,ES:Euskotren:Zone:42:,,0,ES:Euskotren:StopPlace:2581:,,1,ES:Euskotren:Level:Level:0:,
ES:Euskotren:Quay:2582_Plataforma_Q1:,,Hendaia,,"Boulevard de Gaulle, s/n / Hendaia",43.352477,-1.782269,ES:Euskotren:Zone:43:,,0,ES:Euskotren:StopPlace:2582:,,1,ES:Euskotren:Level:Level:0:,
ES:Euskotren:Quay:2582_Plataforma_Q2:,,Hendaia,,"Boulevard de Gaulle, s/n / Hendaia",43.352477,-1.782269,ES:Euskotren:Zone:43:,,0,ES:Euskotren:StopPlace:2582:,,1,ES:Euskotren:Level:Level:0:,
ES:Euskotren:Quay:2584_Plataforma_Q1:,,San Pelaio-Zarautz,,"Calle de María Etxetxiki, 89-91 / Zarautz",43.283477,-2.159935,ES:Euskotren:Zone:41:,,0,ES:Euskotren:StopPlace:2584:,,1,ES:Euskotren:Level:Level:0:,
ES:Euskotren:Quay:2585_Plataforma_Q1:,,Ola-Sondika,,"San Martin Bidea, 1 / Sondika",43.291844,-2.925072,ES:Euskotren:Zone:2:,,0,ES:Euskotren:StopPlace:2585:,,1,ES:Euskotren:Level:Level:0:,
ES:Euskotren:Quay:2586_Plataforma_Q1:,,Amorebieta Geralekua,,"Calle Txiki Otaegi, 5 / Amorebieta-Etxano",43.221718,-2.735128,ES:Euskotren:Zone:6:,,0,ES:Euskotren:StopPlace:2586:,,1,ES:Euskotren:Level:Level:0:,
ES:Euskotren:Quay:2587_Plataforma_Q1:,,Lemoa,,"Calle de la Estación, 10 / Lemoa",43.207099,-2.775422,ES:Euskotren:Zone:6:,,0,ES:Euskotren:StopPlace:2587:,,1,ES:Euskotren:Level:Level:0:,
ES:Euskotren:Quay:2587_Plataforma_Q2:,,Lemoa,,"Calle de la Estación, 10 / Lemoa",43.207099,-2.775422,ES:Euskotren:Zone:6:,,0,ES:Euskotren:StopPlace:2587:,,1,ES:Euskotren:Level:Level:0:,
ES:Euskotren:Quay:2587_Plataforma_Q3:,,Lemoa,,"Calle de la Estación, 10 / Lemoa",43.207099,-2.775422,ES:Euskotren:Zone:6:,,0,ES:Euskotren:StopPlace:2587:,,1,ES:Euskotren:Level:Level:0:,
ES:Euskotren:Quay:2588_Plataforma_Q1:,,Lurgorri-Gernika,,"Calle de Iparraguirre, 48 / Gernika-Lumo",43.306617,-2.680377,ES:Euskotren:Zone:8:,,0,ES:Euskotren:StopPlace:2588:,,1,ES:Euskotren:Level:Level:0:,
ES:Euskotren:Quay:2589_Plataforma_Q1:,,Irun,,"Paseo de Colón, 25 / Irun",43.341377,-1.795883,ES:Euskotren:Zone:43:,,0,ES:Euskotren:StopPlace:2589:,,1,ES:Euskotren:Level:Level:Minus1:,
ES:Euskotren:Quay:2589_Plataforma_Q2:,,Irun,,"Paseo de Colón, 25 / Irun",43.341409,-1.79598,ES:Euskotren:Zone:43:,,0,ES:Euskotren:StopPlace:2589:,,1,ES:Euskotren:Level:Level:Minus1:,
ES:Euskotren:Quay:2590_Plataforma_Q1:,,Anoeta-Donostia,,"Paseo de Anoeta, 32 / Donostia-San Sebastián",43.302124,-1.975369,ES:Euskotren:Zone:42:,,0,ES:Euskotren:StopPlace:2590:,,1,ES:Euskotren:Level:Level:Minus1:,
ES:Euskotren:Quay:2590_Plataforma_Q2:,,Anoeta-Donostia,,"Paseo de Anoeta, 32 / Donostia-San Sebastián",43.302124,-1.975369,ES:Euskotren:Zone:42:,,0,ES:Euskotren:StopPlace:2590:,,1,ES:Euskotren:Level:Level:Minus1:,
ES:Euskotren:Quay:2591_Plataforma_Q1:,,Etxebarri,,"Calle de Santa Ana, 10 / Etxebarri",43.245392,-2.890708,ES:Euskotren:Zone:4:,,0,ES:Euskotren:StopPlace:2591:,,1,ES:Euskotren:Level:Level:Minus1:,
ES:Euskotren:Quay:2591_Plataforma_Q2:,,Etxebarri,,"Calle de Santa Ana, 10 / Etxebarri",43.245385,-2.890944,ES:Euskotren:Zone:4:,,0,ES:Euskotren:StopPlace:2591:,,1,ES:Euskotren:Level:Level:Minus1:,
ES:Euskotren:Quay:2592_Plataforma_Q1:,,Aia-Orio,,"Olazkoegia auzoa, 64, bajo / Aia",43.274211,-2.126171,ES:Euskotren:Zone:41:,,0,ES:Euskotren:StopPlace:2592:,,1,ES:Euskotren:Level:Level:1:,
ES:Euskotren:Quay:2592_Plataforma_Q2:,,Aia-Orio,,"Olazkoegia auzoa, 64, bajo / Aia",43.274211,-2.126171,ES:Euskotren:Zone:41:,,0,ES:Euskotren:StopPlace:2592:,,1,ES:Euskotren:Level:Level:1:,
ES:Euskotren:Quay:2593_Plataforma_Q1:,,Institutoa-Gernika,,"Calle de Carles Gongoiti, s/n / Gernika-Lumo",43.31991,-2.676826,ES:Euskotren:Zone:8:,,0,ES:Euskotren:StopPlace:2593:,,1,ES:Euskotren:Level:Level:1:,
ES:Euskotren:Quay:2594_Plataforma_Q1:,,Unibertsitatea-Eibar,,"Av de Otaola, 24B / Eibar",43.180683,-2.487378,ES:Euskotren:Zone:40:,,0,ES:Euskotren:StopPlace:2594:,,2,ES:Euskotren:Level:Level:0:,
ES:Euskotren:Quay:2594_Plataforma_Q2:,,Unibertsitatea-Eibar,,"Av de Otaola, 24B / Eibar",43.180598,-2.48751,ES:Euskotren:Zone:40:,,0,ES:Euskotren:StopPlace:2594:,,1,ES:Euskotren:Level:Level:0:,
ES:Euskotren:Quay:2595_Plataforma_Q1:,,Sondika,,"Mintxine bidea, 4 / Sondika",43.298278,-2.928255,ES:Euskotren:Zone:2:,,0,ES:Euskotren:StopPlace:2595:,,1,ES:Euskotren:Level:Level:Minus1:,
ES:Euskotren:Quay:2595_Plataforma_Q2:,,Sondika,,"Mintxine bidea, 4 / Sondika",43.298351,-2.928092,ES:Euskotren:Zone:2:,,0,ES:Euskotren:StopPlace:2595:,,1,ES:Euskotren:Level:Level:Minus1:,
ES:Euskotren:Quay:2596_Plataforma_Q1:,,Muxika,,"Barrio de la Astelarre, 93 / Muxika",43.286718,-2.689477,ES:Euskotren:Zone:8:,,0,ES:Euskotren:StopPlace:2596:,,1,ES:Euskotren:Level:Level:0:,
ES:Euskotren:Quay:2596_Plataforma_Q2:,,Muxika,,"Barrio de la Astelarre, 93 / Muxika",43.286597,-2.689391,ES:Euskotren:Zone:8:,,0,ES:Euskotren:StopPlace:2596:,,1,ES:Euskotren:Level:Level:0:,
ES:Euskotren:Quay:2597_Plataforma_Q1:,,Matiko-Bilbao,,Calle Tiboli / Bilbao,43.268994,-2.92555,ES:Euskotren:Zone:3:,,0,ES:Euskotren:StopPlace:2597:,,1,ES:Euskotren:Level:Level:Minus1:,
ES:Euskotren:Quay:2597_Plataforma_Q2:,,Matiko-Bilbao,,Calle Tiboli / Bilbao,43.269054,-2.925537,ES:Euskotren:Zone:3:,,0,ES:Euskotren:StopPlace:2597:,,1,ES:Euskotren:Level:Level:Minus1:,
ES:Euskotren:Quay:2598_Plataforma_Q1:,,Zuhatzu-Galdakao,,"Calle Txomin Egileor, 48 / Galdakao",43.228832,-2.854063,ES:Euskotren:Zone:4:,,0,ES:Euskotren:StopPlace:2598:,,1,ES:Euskotren:Level:Level:0:,
ES:Euskotren:Quay:2598_Plataforma_Q2:,,Zuhatzu-Galdakao,,"Calle Txomin Egileor, 48 / Galdakao",43.228744,-2.854032,ES:Euskotren:Zone:4:,,0,ES:Euskotren:StopPlace:2598:,,1,ES:Euskotren:Level:Level:0:,
ES:Euskotren:Quay:2599_Plataforma_Q1:,,Itsasbegi-Busturia,,"Barrio de Axpe, 138-141 / Busturia",43.390987,-2.693788,ES:Euskotren:Zone:8:,,0,ES:Euskotren:StopPlace:2599:,,1,ES:Euskotren:Level:Level:0:,
ES:Euskotren:Quay:2599_Plataforma_Q2:,,Itsasbegi-Busturia,,"Barrio de Axpe, 138-141 / Busturia",43.390888,-2.69366,ES:Euskotren:Zone:8:,,0,ES:Euskotren:StopPlace:2599:,,1,ES:Euskotren:Level:Level:0:,
ES:Euskotren:Quay:2600_Plataforma_Q1:,,Berriz,,"Geltoki kalea, 2, bajo / Berriz",43.16847,-2.574475,ES:Euskotren:Zone:7:,,0,ES:Euskotren:StopPlace:2600:,,1,ES:Euskotren:Level:Level:0:,
ES:Euskotren:Quay:2600_Plataforma_Q2:,,Berriz,,"Geltoki kalea, 2, bajo / Berriz",43.168413,-2.574413,ES:Euskotren:Zone:7:,,0,ES:Euskotren:StopPlace:2600:,,1,ES:Euskotren:Level:Level:0:,
ES:Euskotren:Quay:2601_Plataforma_Q1:,,Larrondo-Loiu,,"Calle Elotxelerri, s/n / Loiu",43.294342,-2.915939,ES:Euskotren:Zone:2:,,0,ES:Euskotren:StopPlace:2601:,,1,ES:Euskotren:Level:Level:0:,
ES:Euskotren:Quay:2601_Plataforma_Q2:,,Larrondo-Loiu,,"Calle Elotxelerri, s/n / Loiu",43.2943,-2.91556,ES:Euskotren:Zone:2:,,0,ES:Euskotren:StopPlace:2601:,,1,ES:Euskotren:Level:Level:0:,
ES:Euskotren:Quay:2602_Plataforma_Q1:,,Errotabarri-Ermua,,"Av de Guipuzkoa, 11-25 / Ermua",43.183154,-2.498774,ES:Euskotren:Zone:40:,,0,ES:Euskotren:StopPlace:2602:,,2,ES:Euskotren:Level:Level:1:,
ES:Euskotren:Quay:2603_Plataforma_Q1:,,Traña-Abadiño,,Calle de Trañaetxoste / Abadiño,43.165119,-2.611999,ES:Euskotren:Zone:7:,,0,ES:Euskotren:StopPlace:2603:,,1,ES:Euskotren:Level:Level:Minus1:,
ES:Euskotren:Quay:2603_Plataforma_Q2:,,Traña-Abadiño,,Calle de Trañaetxoste / Abadiño,43.16506,-2.612084,ES:Euskotren:Zone:7:,,0,ES:Euskotren:StopPlace:2603:,,1,ES:Euskotren:Level:Level:Minus1:,
ES:Euskotren:Quay:2604_Plataforma_Q1:,,Zumaia,,"Calle de Estazioko, 1, bajo / Zumaia",43.29157,-2.251655,ES:Euskotren:Zone:41:,,0,ES:Euskotren:StopPlace:2604:,,1,ES:Euskotren:Level:Level:0:,
ES:Euskotren:Quay:2604_Plataforma_Q2:,,Zumaia,,"Calle de Estazioko, 1, bajo / Zumaia",43.291457,-2.251713,ES:Euskotren:Zone:41:,,0,ES:Euskotren:StopPlace:2604:,,1,ES:Euskotren:Level:Level:0:,
ES:Euskotren:Quay:2606_Plataforma_Q1:,,Euba-Amorebieta,,"Barrio de Euba, 20 / Amorebieta-Etxano",43.194602,-2.696809,ES:Euskotren:Zone:6:,,0,ES:Euskotren:StopPlace:2606:,,1,ES:Euskotren:Level:Level:0:,
ES:Euskotren:Quay:2606_Plataforma_Q2:,,Euba-Amorebieta,,"Barrio de Euba, 20 / Amorebieta-Etxano",43.194532,-2.696881,ES:Euskotren:Zone:6:,,0,ES:Euskotren:StopPlace:2606:,,1,ES:Euskotren:Level:Level:0:,
ES:Euskotren:Quay:2607_Plataforma_Q1:,,Lezama,,"Barrio de Aretxalde, 78-84 / Lezama",43.273509,-2.835955,ES:Euskotren:Zone:2:,,0,ES:Euskotren:StopPlace:2607:,,1,ES:Euskotren:Level:Level:Minus1:,
ES:Euskotren:Quay:2607_Plataforma_Q2:,,Lezama,,"Barrio de Aretxalde, 78-84 / Lezama",43.273509,-2.835955,ES:Euskotren:Zone:2:,,0,ES:Euskotren:StopPlace:2607:,,1,ES:Euskotren:Level:Level:Minus1:,
ES:Euskotren:Quay:2608_Plataforma_Q1:,,Loiola-Donostia,,"Calle Zeharbidea, 6 / Donostia-San Sebastián",43.310392,-1.968091,ES:Euskotren:Zone:42:,,0,ES:Euskotren:StopPlace:2608:,,0,ES:Euskotren:Level:Level:1:,
ES:Euskotren:Quay:2608_Plataforma_Q2:,,Loiola-Donostia,,"Calle Zeharbidea, 6 / Donostia-San Sebastián",43.310455,-1.968129,ES:Euskotren:Zone:42:,,0,ES:Euskotren:StopPlace:2608:,,0,ES:Euskotren:Level:Level:1:,
ES:Euskotren:Quay:2609_Plataforma_Q1:,,Txurdinaga-Bilbao,,Avda. Gabriel Aresti / Bilbao,43.25807,-2.90671,ES:Euskotren:Zone:3:,,0,ES:Euskotren:StopPlace:2609:,,0,ES:Euskotren:Level:Level:Minus2:,
ES:Euskotren:Quay:2609_Plataforma_Q2:,,Txurdinaga-Bilbao,,Avda. Gabriel Aresti / Bilbao,43.25807,-2.90671,ES:Euskotren:Zone:3:,,0,ES:Euskotren:StopPlace:2609:,,0,ES:Euskotren:Level:Level:Minus2:,
ES:Euskotren:Quay:2610_Plataforma_Q1:,,Galtzaraborda-Errenteria,,"Avda. Galtzaraborda, s/n / Errenteria",43.312364,-1.906789,ES:Euskotren:Zone:42:,,0,ES:Euskotren:StopPlace:2610:,,1,ES:Euskotren:Level:Level:Minus1:,
ES:Euskotren:Quay:2610_Plataforma_Q2:,,Galtzaraborda-Errenteria,,"Avda. Galtzaraborda, s/n / Errenteria",43.312398,-1.906808,ES:Euskotren:Zone:42:,,0,ES:Euskotren:StopPlace:2610:,,1,ES:Euskotren:Level:Level:Minus1:,
ES:Euskotren:Quay:2611_Plataforma_Q1:,,Zangroiz-Sondika,,"Carr. Asua-Erletxes, 35 / Sondika",43.300303,-2.940957,ES:Euskotren:Zone:2:,,0,ES:Euskotren:StopPlace:2611:,,1,ES:Euskotren:Level:Level:0:,
ES:Euskotren:Quay:2612_Plataforma_Q1:,,Oiartzun,,"Barrio Arragua, s/n / Oiartzun",43.308662,-1.879714,ES:Euskotren:Zone:42:,,0,ES:Euskotren:StopPlace:2612:,,1,ES:Euskotren:Level:Level:1:,
ES:Euskotren:Quay:2612_Plataforma_Q2:,,Oiartzun,,"Barrio Arragua, s/n / Oiartzun",43.308662,-1.879714,ES:Euskotren:Zone:42:,,0,ES:Euskotren:StopPlace:2612:,,1,ES:Euskotren:Level:Level:1:,
ES:Euskotren:Quay:2613_Plataforma_Q1:,,Arroa-Zestoa,,"Barrio de San Isidro, 3 / Zestoa",43.278328,-2.270813,ES:Euskotren:Zone:41:,,0,ES:Euskotren:StopPlace:2613:,,1,ES:Euskotren:Level:Level:0:,
ES:Euskotren:Quay:2614_Plataforma_Q1:,,Derio,,"Barrio de Arteaga, 14 / Derio",43.290916,-2.887485,ES:Euskotren:Zone:2:,,0,ES:Euskotren:StopPlace:2614:,,1,ES:Euskotren:Level:Level:0:,
ES:Euskotren:Quay:2614_Plataforma_Q2:,,Derio,,"Barrio de Arteaga, 14 / Derio",43.290916,-2.887485,ES:Euskotren:Zone:2:,,0,ES:Euskotren:StopPlace:2614:,,1,ES:Euskotren:Level:Level:0:,
ES:Euskotren:Quay:2615_Plataforma_Q1:,,Axpe-Busturia,,"Barrio de Axpe, 35 / Busturia",43.380121,-2.693045,ES:Euskotren:Zone:8:,,0,ES:Euskotren:StopPlace:2615:,,1,ES:Euskotren:Level:Level:0:,
ES:Euskotren:Quay:2616_Plataforma_Q1:,,Mundaka,,"Calle Geltoki, 1 bajo / Mundaka",43.408842,-2.701085,ES:Euskotren:Zone:8:,,0,ES:Euskotren:StopPlace:2616:,,2,ES:Euskotren:Level:Level:0:,
ES:Euskotren:Quay:2616_Plataforma_Q2:,,Mundaka,,"Calle Geltoki, 1 bajo / Mundaka",43.408842,-2.701085,ES:Euskotren:Zone:8:,,0,ES:Euskotren:StopPlace:2616:,,1,ES:Euskotren:Level:Level:0:,
ES:Euskotren:Quay:2617_Plataforma_Q1:,,Zurbaranbarri-Bilbao,,Calle Zumaia / Bilbao,43.26495,-2.914971,ES:Euskotren:Zone:3:,,0,ES:Euskotren:StopPlace:2617:,,1,ES:Euskotren:Level:Level:Minus1:,
ES:Euskotren:Quay:2617_Plataforma_Q2:,,Zurbaranbarri-Bilbao,,Calle Zumaia / Bilbao,43.26495,-2.914971,ES:Euskotren:Zone:3:,,0,ES:Euskotren:StopPlace:2617:,,1,ES:Euskotren:Level:Level:Minus1:,
ES:Euskotren:Quay:2618_Plataforma_Q1:,,Durango,,"Calle Geltoki, 2 / Durango",43.169488,-2.634781,ES:Euskotren:Zone:7:,,0,ES:Euskotren:StopPlace:2618:,,1,ES:Euskotren:Level:Level:Minus2:,
ES:Euskotren:Quay:2618_Plataforma_Q2:,,Durango,,"Calle Geltoki, 2 / Durango",43.169488,-2.634781,ES:Euskotren:Zone:7:,,0,ES:Euskotren:StopPlace:2618:,,1,ES:Euskotren:Level:Level:Minus2:,
ES:Euskotren:Quay:2619_Plataforma_Q1:,,Eibar,,"Estación, 21, bajo / Eibar",43.187138,-2.465732,ES:Euskotren:Zone:40:,,0,ES:Euskotren:StopPlace:2619:,,1,ES:Euskotren:Level:Level:0:,
ES:Euskotren:Quay:2619_Plataforma_Q2:,,Eibar,,"Estación, 21, bajo / Eibar",43.187135,-2.465416,ES:Euskotren:Zone:40:,,0,ES:Euskotren:StopPlace:2619:,,1,ES:Euskotren:Level:Level:0:,
ES:Euskotren:Quay:2619_Plataforma_Q3:,,Eibar,,"Estación, 21, bajo / Eibar",43.187135,-2.465416,ES:Euskotren:Zone:40:,,0,ES:Euskotren:StopPlace:2619:,,1,ES:Euskotren:Level:Level:0:,
ES:Euskotren:Quay:2620_Plataforma_Q1:,,Bedia,,Barrio de Barroeta / Bedia,43.20616,-2.797581,ES:Euskotren:Zone:6:,,0,ES:Euskotren:StopPlace:2620:,,1,ES:Euskotren:Level:Level:1:,
ES:Euskotren:Quay:2620_Plataforma_Q2:,,Bedia,,Barrio de Barroeta / Bedia,43.206089,-2.79761,ES:Euskotren:Zone:6:,,0,ES:Euskotren:StopPlace:2620:,,1,ES:Euskotren:Level:Level:1:,
ES:Euskotren:Quay:2621_Plataforma_Q1:,,Lugaritz-Donostia,,Paseo de Lugaritz / Donostia-San Sebastián,43.302499,-2.000706,ES:Euskotren:Zone:42:,,0,ES:Euskotren:StopPlace:2621:,,1,ES:Euskotren:Level:Level:Minus1:,
ES:Euskotren:Quay:2621_Plataforma_Q2:,,Lugaritz-Donostia,,Paseo de Lugaritz / Donostia-San Sebastián,43.302499,-2.000706,ES:Euskotren:Zone:42:,,0,ES:Euskotren:StopPlace:2621:,,1,ES:Euskotren:Level:Level:Minus1:,
ES:Euskotren:Quay:2622_Plataforma_Q1:,,Elgoibar,,"Trenbide kalea, 14, bajo / Elgoibar",43.213428,-2.416005,ES:Euskotren:Zone:40:,,0,ES:Euskotren:StopPlace:2622:,,1,ES:Euskotren:Level:Level:0:,
ES:Euskotren:Quay:2622_Plataforma_Q2:,,Elgoibar,,"Trenbide kalea, 14, bajo / Elgoibar",43.213362,-2.416005,ES:Euskotren:Zone:40:,,0,ES:Euskotren:StopPlace:2622:,,1,ES:Euskotren:Level:Level:0:,
ES:Euskotren:Quay:2624_Plataforma_Q1:,,Herrera-Donostia,,"Avd. Jose Elosegi, 297 / Donostia-San Sebastián",43.319817,-1.938105,ES:Euskotren:Zone:42:,,0,ES:Euskotren:StopPlace:2624:,,1,ES:Euskotren:Level:Level:Minus1:,
ES:Euskotren:Quay:2624_Plataforma_Q2:,,Herrera-Donostia,,"Avd. Jose Elosegi, 297 / Donostia-San Sebastián",43.319817,-1.938105,ES:Euskotren:Zone:42:,,0,ES:Euskotren:StopPlace:2624:,,1,ES:Euskotren:Level:Level:Minus1:,
ES:Euskotren:Quay:2625_Plataforma_Q1:,,Fanderia-Errenteria,,Avda. Fanderia / Errenteria,43.308263,-1.889238,ES:Euskotren:Zone:42:,,0,ES:Euskotren:StopPlace:2625:,,1,ES:Euskotren:Level:Level:0:,
ES:Euskotren:Quay:2625_Plataforma_Q2:,,Fanderia-Errenteria,,Avda. Fanderia / Errenteria,43.308263,-1.889238,ES:Euskotren:Zone:42:,,0,ES:Euskotren:StopPlace:2625:,,1,ES:Euskotren:Level:Level:0:,
ES:Euskotren:Quay:2626_Plataforma_Q1:,,Altzola-Elgoibar,,"Calle de Donosti, 8 / Elgoibar",43.235866,-2.399513,ES:Euskotren:Zone:40:,,0,ES:Euskotren:StopPlace:2626:,,2,ES:Euskotren:Level:Level:1:,
ES:Euskotren:Quay:2627_Plataforma_Q1:,,San Lorentzo-Ermua,,Av de Guipuzkoa 35 / Ermua,43.179443,-2.495737,ES:Euskotren:Zone:40:,,0,ES:Euskotren:StopPlace:2627:,,1,ES:Euskotren:Level:Level:0:,
ES:Euskotren:Quay:2629_Plataforma_Q1:,,Elotxelerri-Loiu,,Camino de Molinaga / Loiu,43.294429,-2.905925,ES:Euskotren:Zone:2:,,0,ES:Euskotren:StopPlace:2629:,,1,ES:Euskotren:Level:Level:0:,
ES:Euskotren:Quay:2631_Plataforma_Q1:,,Altza-Donostia,,"Paseo de Larratxo, 95 / Donostia-San Sebastián",43.316955,-1.930058,ES:Euskotren:Zone:42:,,0,ES:Euskotren:StopPlace:2631:,,1,ES:Euskotren:Level:Level:Minus2:,
ES:Euskotren:Quay:2631_Plataforma_Q2:,,Altza-Donostia,,"Paseo de Larratxo, 95 / Donostia-San Sebastián",43.316955,-1.930058,ES:Euskotren:Zone:42:,,0,ES:Euskotren:StopPlace:2631:,,1,ES:Euskotren:Level:Level:Minus2:,
ES:Euskotren:Quay:2632_Plataforma_Q1:,,Bentak-Irun,,Avda. Elizatxo / Irun,43.330332,-1.817012,ES:Euskotren:Zone:43:,,0,ES:Euskotren:StopPlace:2632:,,1,ES:Euskotren:Level:Level:0:,
ES:Euskotren:Quay:2632_Plataforma_Q2:,,Bentak-Irun,,Avda. Elizatxo / Irun,43.33041,-1.817055,ES:Euskotren:Zone:43:,,0,ES:Euskotren:StopPlace:2632:,,1,ES:Euskotren:Level:Level:0:,
ES:Euskotren:Quay:2633_Plataforma_Q1:,,Deba,,"Plaza Arakistain, 6 / Deba",43.294045,-2.355531,ES:Euskotren:Zone:40:,,0,ES:Euskotren:StopPlace:2633:,,1,ES:Euskotren:Level:Level:0:,
ES:Euskotren:Quay:2633_Plataforma_Q2:,,Deba,,"Plaza Arakistain, 6 / Deba",43.294045,-2.355531,ES:Euskotren:Zone:40:,,0,ES:Euskotren:StopPlace:2633:,,1,ES:Euskotren:Level:Level:0:,
ES:Euskotren:Quay:2635_Plataforma_Q1:,,Amaña-Eibar,,Calle de Amaña / Eibar,43.184597,-2.480531,ES:Euskotren:Zone:40:,,0,ES:Euskotren:StopPlace:2635:,,1,ES:Euskotren:Level:Level:Minus1:,
ES:Euskotren:Quay:2635_Plataforma_Q2:,,Amaña-Eibar,,Calle de Amaña / Eibar,43.184597,-2.480531,ES:Euskotren:Zone:40:,,0,ES:Euskotren:StopPlace:2635:,,1,ES:Euskotren:Level:Level:Minus1:,
ES:Euskotren:Quay:2636_Plataforma_Q1:,,Belaskoenea-Irun,,Calle de los Balleneros / Irun,43.336525,-1.803769,ES:Euskotren:Zone:43:,,0,ES:Euskotren:StopPlace:2636:,,1,ES:Euskotren:Level:Level:0:,
ES:Euskotren:Quay:2637_Plataforma_Q1:,,Amorebieta Geltokia,,"Calle Sabino Arana, 42, bajo / Amorebieta-Etxano",43.216702,-2.736223,ES:Euskotren:Zone:6:,,0,ES:Euskotren:StopPlace:2637:,,1,ES:Euskotren:Level:Level:Minus1:,
ES:Euskotren:Quay:2637_Plataforma_Q2:,,Amorebieta Geltokia,,"Calle Sabino Arana, 42, bajo / Amorebieta-Etxano",43.216606,-2.736301,ES:Euskotren:Zone:6:,,0,ES:Euskotren:StopPlace:2637:,,1,ES:Euskotren:Level:Level:Minus1:,
ES:Euskotren:Quay:2637_Plataforma_Q3:,,Amorebieta Geltokia,,"Calle Sabino Arana, 42, bajo / Amorebieta-Etxano",43.216702,-2.736223,ES:Euskotren:Zone:6:,,0,ES:Euskotren:StopPlace:2637:,,1,ES:Euskotren:Level:Level:Minus1:,
ES:Euskotren:Quay:2638_Plataforma_Q1:,,Kurtzea-Lezama,,"Barrio de Aretxalde,156 / Lezama",43.276584,-2.846415,ES:Euskotren:Zone:2:,,0,ES:Euskotren:StopPlace:2638:,,1,ES:Euskotren:Level:Level:0:,
ES:Euskotren:Quay:2638_Plataforma_Q2:,,Kurtzea-Lezama,,"Barrio de Aretxalde,156 / Lezama",43.276627,-2.846307,ES:Euskotren:Zone:2:,,0,ES:Euskotren:StopPlace:2638:,,1,ES:Euskotren:Level:Level:0:,
ES:Euskotren:Quay:2639_Plataforma_Q1:,,Kukullaga-Etxebarri,,"C/ Bernar Etxepare, 33 / Etxebarri",43.251034,-2.889611,ES:Euskotren:Zone:18:,,0,ES:Euskotren:StopPlace:2639:,,1,ES:Euskotren:Level:Level:0:,
ES:Euskotren:Quay:2639_Plataforma_Q2:,,Kukullaga-Etxebarri,,"C/ Bernar Etxepare, 33 / Etxebarri",43.250996,-2.889755,ES:Euskotren:Zone:18:,,0,ES:Euskotren:StopPlace:2639:,,1,ES:Euskotren:Level:Level:0:,
ES:Euskotren:Quay:2639_Plataforma_Q3:,,Kukullaga-Etxebarri,,"C/ Bernar Etxepare, 33 / Etxebarri",43.250996,-2.889755,ES:Euskotren:Zone:18:,,0,ES:Euskotren:StopPlace:2639:,,1,ES:Euskotren:Level:Level:0:,
ES:Euskotren:Quay:2640_Plataforma_Q1:,,Azitain-Eibar,,"Calle de Barrena, 9-11 / Eibar",43.190411,-2.454957,ES:Euskotren:Zone:40:,,0,ES:Euskotren:StopPlace:2640:,,1,ES:Euskotren:Level:Level:1:,
ES:Euskotren:Quay:2640_Plataforma_Q2:,,Azitain-Eibar,,"Calle de Barrena, 9-11 / Eibar",43.190411,-2.454957,ES:Euskotren:Zone:40:,,0,ES:Euskotren:StopPlace:2640:,,1,ES:Euskotren:Level:Level:1:,
ES:Euskotren:Quay:2641_Plataforma_Q1:,,Uribarri-Bilbao,,Calle Trauko / Bilbao,43.267223,-2.921325,ES:Euskotren:Zone:3:,,0,ES:Euskotren:StopPlace:2641:,,1,ES:Euskotren:Level:Level:Minus1:,
ES:Euskotren:Quay:2641_Plataforma_Q2:,,Uribarri-Bilbao,,Calle Trauko / Bilbao,43.267223,-2.921325,ES:Euskotren:Zone:3:,,0,ES:Euskotren:StopPlace:2641:,,1,ES:Euskotren:Level:Level:Minus1:,
ES:Euskotren:Quay:2642_Plataforma_Q1:,,Zamudio,,Mikel Zarate Plaza / Zamudio,43.284282,-2.865212,ES:Euskotren:Zone:2:,,0,ES:Euskotren:StopPlace:2642:,,1,ES:Euskotren:Level:Level:0:,
ES:Euskotren:Quay:2643_Plataforma_Q1:,,Forua,,"Barrio Elejalde, s/n / Forua",43.332041,-2.673636,ES:Euskotren:Zone:8:,,0,ES:Euskotren:StopPlace:2643:,,1,ES:Euskotren:Level:Level:0:,
ES:Euskotren:Quay:2645_Plataforma_Q1:,,Gernika,,"Plaza estación, s/n bajo / Gernika-Lumo",43.314085,-2.676208,ES:Euskotren:Zone:8:,,0,ES:Euskotren:StopPlace:2645:,,1,ES:Euskotren:Level:Level:0:,
ES:Euskotren:Quay:2645_Plataforma_Q2:,,Gernika,,"Plaza estación, s/n bajo / Gernika-Lumo",43.313931,-2.676154,ES:Euskotren:Zone:8:,,0,ES:Euskotren:StopPlace:2645:,,1,ES:Euskotren:Level:Level:0:,
ES:Euskotren:Quay:2645_Plataforma_Q3:,,Gernika,,"Plaza estación, s/n bajo / Gernika-Lumo",43.313931,-2.676154,ES:Euskotren:Zone:8:,,0,ES:Euskotren:StopPlace:2645:,,1,ES:Euskotren:Level:Level:0:,
ES:Euskotren:Quay:2646_Plataforma_Q1:,,Ariz-Basauri,,"Avd. Cervantes, 8 bajo / Basauri",43.23997,-2.879,ES:Euskotren:Zone:4:,,0,ES:Euskotren:StopPlace:2646:,,1,ES:Euskotren:Level:Level:0:,
ES:Euskotren:Quay:2646_Plataforma_Q2:,,Ariz-Basauri,,"Avd. Cervantes, 8 bajo / Basauri",43.239954,-2.879121,ES:Euskotren:Zone:4:,,0,ES:Euskotren:StopPlace:2646:,,1,ES:Euskotren:Level:Level:0:,
ES:Euskotren:Quay:2647_Plataforma_Q1:,,Añorga-Donostia,,"Avd. de Añorga, 12 / Donostia-San Sebastián",43.291618,-1.994592,ES:Euskotren:Zone:42:,,0,ES:Euskotren:StopPlace:2647:,,1,ES:Euskotren:Level:Level:1:,
ES:Euskotren:Quay:2647_Plataforma_Q2:,,Añorga-Donostia,,"Avd. de Añorga, 12 / Donostia-San Sebastián",43.291618,-1.994592,ES:Euskotren:Zone:42:,,0,ES:Euskotren:StopPlace:2647:,,1,ES:Euskotren:Level:Level:1:,
ES:Euskotren:Quay:2648_Plataforma_Q1:,,Intxaurrondo-Donostia,,Plaza Sagastieder / Donostia-San Sebastián,43.314244,-1.954914,ES:Euskotren:Zone:42:,,0,ES:Euskotren:StopPlace:2648:,,1,ES:Euskotren:Level:Level:Minus2:,
ES:Euskotren:Quay:2648_Plataforma_Q2:,,Intxaurrondo-Donostia,,Plaza Sagastieder / Donostia-San Sebastián,43.314087,-1.954786,ES:Euskotren:Zone:42:,,0,ES:Euskotren:StopPlace:2648:,,1,ES:Euskotren:Level:Level:Minus2:,
ES:Euskotren:Quay:2649_Plataforma_Q1:,,Ficoba-Irun,,Avda. de Iparralde / Irun,43.348964,-1.786877,ES:Euskotren:Zone:43:,,0,ES:Euskotren:StopPlace:2649:,,1,ES:Euskotren:Level:Level:0:,
ES:Euskotren:Quay:2650_Plataforma_Q1:,,Mendaro,,"Calle de José María Linazasoro, 9-11 / Mendaro",43.252281,-2.388031,ES:Euskotren:Zone:40:,,0,ES:Euskotren:StopPlace:2650:,,1,ES:Euskotren:Level:Level:0:,
ES:Euskotren:Quay:2650_Plataforma_Q2:,,Mendaro,,"Calle de José María Linazasoro, 9-11 / Mendaro",43.252336,-2.387763,ES:Euskotren:Zone:40:,,0,ES:Euskotren:StopPlace:2650:,,1,ES:Euskotren:Level:Level:0:,
ES:Euskotren:Quay:2651_Plataforma_Q1:,,Errekalde-Donostia,,Autovía del Norte / Donostia-San Sebastián,43.27874,-2.007477,ES:Euskotren:Zone:42:,,0,ES:Euskotren:StopPlace:2651:,,1,ES:Euskotren:Level:Level:0:,
ES:Euskotren:Quay:2651_Plataforma_Q2:,,Errekalde-Donostia,,Autovía del Norte / Donostia-San Sebastián,43.27874,-2.007477,ES:Euskotren:Zone:42:,,0,ES:Euskotren:StopPlace:2651:,,1,ES:Euskotren:Level:Level:0:,
ES:Euskotren:Quay:2652_Plataforma_Q1:,,Lekunbiz-Zamudio,,"Barrio de San Antolín, 27 / Zamudio",43.286718,-2.874588,ES:Euskotren:Zone:2:,,0,ES:Euskotren:StopPlace:2652:,,1,ES:Euskotren:Level:Level:0:,
ES:Euskotren:Quay:2653_Plataforma_Q1:,,Usurbil,,"Calle de Erribera, 25 / Usurbil",43.268631,-2.052824,ES:Euskotren:Zone:42:,,0,ES:Euskotren:StopPlace:2653:,,1,ES:Euskotren:Level:Level:0:,
ES:Euskotren:Quay:2653_Plataforma_Q2:,,Usurbil,,"Calle de Erribera, 25 / Usurbil",43.268559,-2.052813,ES:Euskotren:Zone:42:,,0,ES:Euskotren:StopPlace:2653:,,1,ES:Euskotren:Level:Level:0:,
ES:Euskotren:Quay:2654_Plataforma_Q1:,,Gaintxurizketa-Lezo,,Carretera Madrid-Irún / Lezo,43.326663,-1.857643,ES:Euskotren:Zone:42:,,0,ES:Euskotren:StopPlace:2654:,,2,ES:Euskotren:Level:Level:0:,
ES:Euskotren:Quay:2654_Plataforma_Q2:,,Gaintxurizketa-Lezo,,Carretera Madrid-Irún / Lezo,43.326637,-1.857836,ES:Euskotren:Zone:42:,,0,ES:Euskotren:StopPlace:2654:,,2,ES:Euskotren:Level:Level:0:,
ES:Euskotren:Quay:2655_Plataforma_Q1:,,Zaldibar,,"Barrio de Okango, 31 / Zaldibar",43.171629,-2.548298,ES:Euskotren:Zone:7:,,0,ES:Euskotren:StopPlace:2655:,,1,ES:Euskotren:Level:Level:0:,
ES:Euskotren:Quay:2656_Plataforma_Q1:,,Ardantza-Eibar,,Plaza Untzaga / Eibar,43.184739,-2.473875,ES:Euskotren:Zone:40:,,0,ES:Euskotren:StopPlace:2656:,,1,ES:Euskotren:Level:Level:1:,
ES:Euskotren:Quay:2656_Plataforma_Q2:,,Ardantza-Eibar,,Plaza Untzaga / Eibar,43.184739,-2.473875,ES:Euskotren:Zone:40:,,0,ES:Euskotren:StopPlace:2656:,,1,ES:Euskotren:Level:Level:1:,
ES:Euskotren:Quay:2657_Plataforma_Q1:,,Zugaztieta-Muxika,,"Barrio de Zugastieta, 25 / Muxika",43.252165,-2.692708,ES:Euskotren:Zone:8:,,0,ES:Euskotren:StopPlace:2657:,,0,ES:Euskotren:Level:Level:0:,
ES:Euskotren:Quay:2657_Plataforma_Q2:,,Zugaztieta-Muxika,,"Barrio de Zugastieta, 25 / Muxika",43.252146,-2.692743,ES:Euskotren:Zone:8:,,0,ES:Euskotren:StopPlace:2657:,,0,ES:Euskotren:Level:Level:0:,
ES:Euskotren:Quay:2658_Plataforma_Q1:,,Toletxegain-Elgoibar,,"Av de Pedro Muguruza, 6-8 / Elgoibar",43.217788,-2.408536,ES:Euskotren:Zone:40:,,0,ES:Euskotren:StopPlace:2658:,,1,ES:Euskotren:Level:Level:0:,
ES:Euskotren:Quay:2660_Plataforma_Q1:,,San Kristobal-Busturia,,"Barrio de Altamira, 9 / Busturia",43.367768,-2.690299,ES:Euskotren:Zone:8:,,0,ES:Euskotren:StopPlace:2660:,,1,ES:Euskotren:Level:Level:0:,
ES:Euskotren:Quay:2661_Plataforma_Q1:,,Usansolo,,"Calle de Oletxe, 48 / Usansolo",43.217648,-2.821493,ES:Euskotren:Zone:4:,,0,ES:Euskotren:StopPlace:2661:,,1,ES:Euskotren:Level:Level:0:,
ES:Euskotren:Quay:2661_Plataforma_Q2:,,Usansolo,,"Calle de Oletxe, 48 / Usansolo",43.21762,-2.821632,ES:Euskotren:Zone:4:,,0,ES:Euskotren:StopPlace:2661:,,1,ES:Euskotren:Level:Level:0:,
ES:Euskotren:Quay:2663_Plataforma_Q1:,,Otxarkoaga-Bilbao,,Avda. Pau Casals / Bilbao,43.259593,-2.90015,ES:Euskotren:Zone:3:,,0,ES:Euskotren:StopPlace:2663:,,1,ES:Euskotren:Level:Level:Minus2:,
ES:Euskotren:Quay:2663_Plataforma_Q2:,,Otxarkoaga-Bilbao,,Avda. Pau Casals / Bilbao,43.259593,-2.90015,ES:Euskotren:Zone:3:,,0,ES:Euskotren:StopPlace:2663:,,1,ES:Euskotren:Level:Level:Minus2:,
ES:Euskotren:Quay:2664_Plataforma_Q1:,,Zarautz,,"Calle de Lapurdi, 2, bajo / Zarautz",43.284259,-2.171231,ES:Euskotren:Zone:41:,,0,ES:Euskotren:StopPlace:2664:,,1,ES:Euskotren:Level:Level:1:,
ES:Euskotren:Quay:2664_Plataforma_Q2:,,Zarautz,,"Calle de Lapurdi, 2, bajo / Zarautz",43.284198,-2.171311,ES:Euskotren:Zone:41:,,0,ES:Euskotren:StopPlace:2664:,,1,ES:Euskotren:Level:Level:1:,
ES:Euskotren:Quay:2665_Plataforma_Q1:,,Errenteria,,"Avda. Pablo Iglesias, 16 / Errenteria",43.311104,-1.899056,ES:Euskotren:Zone:42:,,0,ES:Euskotren:StopPlace:2665:,,1,ES:Euskotren:Level:Level:0:,
ES:Euskotren:Quay:2665_Plataforma_Q2:,,Errenteria,,"Avda. Pablo Iglesias, 16 / Errenteria",43.311137,-1.89898,ES:Euskotren:Zone:42:,,0,ES:Euskotren:StopPlace:2665:,,1,ES:Euskotren:Level:Level:0:,
ES:Euskotren:Quay:2666_Plataforma_Q1:,,Ermua,,"Calle Izelaieta, 21 / Ermua",43.184646,-2.501193,ES:Euskotren:Zone:40:,,0,ES:Euskotren:StopPlace:2666:,,1,ES:Euskotren:Level:Level:1:,
ES:Euskotren:Quay:2666_Plataforma_Q2:,,Ermua,,"Calle Izelaieta, 21 / Ermua",43.184646,-2.501193,ES:Euskotren:Zone:40:,,0,ES:Euskotren:StopPlace:2666:,,1,ES:Euskotren:Level:Level:1:,
ES:Euskotren:Quay:2667_Plataforma_Q1:,,Pasaia,,"Zumalakarregi kalea, 8 / Pasaia",43.318118,-1.917572,ES:Euskotren:Zone:42:,,0,ES:Euskotren:StopPlace:2667:,,1,ES:Euskotren:Level:Level:1:,
ES:Euskotren:Quay:2667_Plataforma_Q2:,,Pasaia,,"Zumalakarregi kalea, 8 / Pasaia",43.318066,-1.917609,ES:Euskotren:Zone:42:,,0,ES:Euskotren:StopPlace:2667:,,1,ES:Euskotren:Level:Level:1:,
ES:Euskotren:Quay:2669_Plataforma_Q1:,,Hegoalde,,Plaza de las Hebillas / Vitoria-Gasteiz,42.838825,-2.666329,ES:Euskotren:Zone:70:,,0,ES:Euskotren:StopPlace:2669:,,0,ES:Euskotren:Level:Level:1:,
ES:Euskotren:Quay:2669_Plataforma_Q2:,,Hegoalde,,Plaza de las Hebillas / Vitoria-Gasteiz,42.838825,-2.666329,ES:Euskotren:Zone:70:,,0,ES:Euskotren:StopPlace:2669:,,0,ES:Euskotren:Level:Level:1:,
ES:Euskotren:Quay:2670_Plataforma_Q1:,,Florida,,"C/Florida, 76 / Vitoria-Gasteiz",42.842071,-2.665088,ES:Euskotren:Zone:70:,,0,ES:Euskotren:StopPlace:2670:,,0,ES:Euskotren:Level:Level:1:,
ES:Euskotren:Quay:2670_Plataforma_Q2:,,Florida,,"C/Florida, 76 / Vitoria-Gasteiz",42.842071,-2.665088,ES:Euskotren:Zone:70:,,0,ES:Euskotren:StopPlace:2670:,,0,ES:Euskotren:Level:Level:1:,
ES:Euskotren:Quay:2671_Plataforma_Q1:,,Unibertsitatea,,"C/ Martinez Aragón, 13 / Vitoria-Gasteiz",42.837364,-2.67243,ES:Euskotren:Zone:70:,,0,ES:Euskotren:StopPlace:2671:,,0,ES:Euskotren:Level:Level:1:,
ES:Euskotren:Quay:2671_Plataforma_Q2:,,Unibertsitatea,,"C/ Martinez Aragón, 13 / Vitoria-Gasteiz",42.837364,-2.67243,ES:Euskotren:Zone:70:,,0,ES:Euskotren:StopPlace:2671:,,0,ES:Euskotren:Level:Level:1:,
ES:Euskotren:Quay:2673_Plataforma_Q1:,,Abusu,,,43.245503,-2.915783,ES:Euskotren:Zone:20:,,0,ES:Euskotren:StopPlace:2673:,,0,ES:Euskotren:Level:Level:1:,
ES:Euskotren:Quay:2673_Plataforma_Q2:,,Abusu,,,43.245503,-2.915783,ES:Euskotren:Zone:20:,,0,ES:Euskotren:StopPlace:2673:,,0,ES:Euskotren:Level:Level:1:,
ES:Euskotren:Quay:2674_Plataforma_Q1:,,Bolueta,,"48004 Bilbao, Vizcaya / Bilbao",43.247252,-2.904919,ES:Euskotren:Zone:20:,,0,ES:Euskotren:StopPlace:2674:,,0,ES:Euskotren:Level:Level:1:,
ES:Euskotren:Quay:2674_Plataforma_Q2:,,Bolueta,,"48004 Bilbao, Vizcaya / Bilbao",43.247252,-2.904919,ES:Euskotren:Zone:20:,,0,ES:Euskotren:StopPlace:2674:,,0,ES:Euskotren:Level:Level:1:,
ES:Euskotren:Quay:2675_Plataforma_Q1:,,Salburua,,"Avenida 8 de Marzo, 17 / Vitoria-Gasteiz",42.854489,-2.651874,ES:Euskotren:Zone:70:,,0,ES:Euskotren:StopPlace:2675:,,0,ES:Euskotren:Level:Level:1:,
ES:Euskotren:Quay:2675_Plataforma_Q2:,,Salburua,,"Avenida 8 de Marzo, 17 / Vitoria-Gasteiz",42.854489,-2.651874,ES:Euskotren:Zone:70:,,0,ES:Euskotren:StopPlace:2675:,,0,ES:Euskotren:Level:Level:1:,
ES:Euskotren:Quay:2676_Plataforma_Q1:,,La Unión,,"Av. Salburua, 8 / Vitoria-Gasteiz",42.849156,-2.650589,ES:Euskotren:Zone:70:,,0,ES:Euskotren:StopPlace:2676:,,0,ES:Euskotren:Level:Level:1:,
ES:Euskotren:Quay:2676_Plataforma_Q2:,,La Unión,,"Av. Salburua, 8 / Vitoria-Gasteiz",42.849156,-2.650589,ES:Euskotren:Zone:70:,,0,ES:Euskotren:StopPlace:2676:,,0,ES:Euskotren:Level:Level:1:,
ES:Euskotren:Quay:2677_Plataforma_Q1:,,Santa Luzia,,"Calle Florida, 38 / Vitoria-Gasteiz",42.841606,-2.658713,ES:Euskotren:Zone:70:,,0,ES:Euskotren:StopPlace:2677:,,0,ES:Euskotren:Level:Level:1:,
ES:Euskotren:Quay:2677_Plataforma_Q2:,,Santa Luzia,,"Calle Florida, 38 / Vitoria-Gasteiz",42.841606,-2.658713,ES:Euskotren:Zone:70:,,0,ES:Euskotren:StopPlace:2677:,,0,ES:Euskotren:Level:Level:1:,
ES:Euskotren:Quay:2678_Plataforma_Q1:,,Iliada,,"Paseo de la Iliada, 2 / Vitoria-Gasteiz",42.843377,-2.651488,ES:Euskotren:Zone:70:,,0,ES:Euskotren:StopPlace:2678:,,0,ES:Euskotren:Level:Level:1:,
ES:Euskotren:Quay:2678_Plataforma_Q2:,,Iliada,,"Paseo de la Iliada, 2 / Vitoria-Gasteiz",42.843377,-2.651488,ES:Euskotren:Zone:70:,,0,ES:Euskotren:StopPlace:2678:,,0,ES:Euskotren:Level:Level:1:,
ES:Euskotren:Quay:2679_Plataforma_Q1:,,Nikosia,,"Av. Salburua, 34 / Vitoria-Gasteiz",42.845215,-2.649645,ES:Euskotren:Zone:70:,,0,ES:Euskotren:StopPlace:2679:,,0,ES:Euskotren:Level:Level:1:,
ES:Euskotren:Quay:2679_Plataforma_Q2:,,Nikosia,,"Av. Salburua, 34 / Vitoria-Gasteiz",42.845215,-2.649645,ES:Euskotren:Zone:70:,,0,ES:Euskotren:StopPlace:2679:,,0,ES:Euskotren:Level:Level:1:,
ES:Euskotren:StopPlace:1468:,,Atxuri,,"Calle Atxuri, 5-6 / Bilbao",43.254113,-2.921513,ES:Euskotren:Zone:20:,,1,,,1,ES:Euskotren:Level:Level:1:,
ES:Euskotren:StopPlace:1469:,,Uribitarte,,Calle Uribitarte / Bilbao,43.266303,-2.928733,ES:Euskotren:Zone:20:,,1,,,1,ES:Euskotren:Level:Level:1:,
ES:Euskotren:StopPlace:1470:,,San Mames,,Av Juan Antonio Zunzunegui / Bilbao,43.261742,-2.948939,ES:Euskotren:Zone:20:,,1,,,1,ES:Euskotren:Level:Level:1:,
ES:Euskotren:StopPlace:1471:,,Abando,,"Calle Navarra, 5 / Bilbao",43.261052,-2.926658,ES:Euskotren:Zone:20:,,1,,,1,ES:Euskotren:Level:Level:1:,
ES:Euskotren:StopPlace:1472:,,Hospital/Ospitalea,,Calle Gurtubay / Bilbao,43.259796,-2.951244,ES:Euskotren:Zone:20:,,1,,,1,ES:Euskotren:Level:Level:1:,
ES:Euskotren:StopPlace:1473:,,Ribera,,Calle de la Ribera / Bilbao,43.255795,-2.924369,ES:Euskotren:Zone:20:,,1,,,1,ES:Euskotren:Level:Level:1:,
ES:Euskotren:StopPlace:1474:,,Sabino Arana,,"Av de Sabino Arana, 8 / Bilbao",43.263192,-2.946222,ES:Euskotren:Zone:20:,,1,,,1,ES:Euskotren:Level:Level:1:,
ES:Euskotren:StopPlace:1475:,,Abandoibarra,,Av de Abandoibarra / Bilbao,43.268585,-2.9407,ES:Euskotren:Zone:20:,,1,,,1,ES:Euskotren:Level:Level:1:,
ES:Euskotren:StopPlace:1476:,,Guggenheim,,Av de Abandoibarra / Bilbao,43.2687,-2.936763,ES:Euskotren:Zone:20:,,1,,,1,ES:Euskotren:Level:Level:1:,
ES:Euskotren:StopPlace:1477:,,La Casilla,,"C/ Autonomía, 56 / Bilbao",43.257767,-2.944349,ES:Euskotren:Zone:20:,,1,,,1,ES:Euskotren:Level:Level:1:,
ES:Euskotren:StopPlace:1478:,,Pio Baroja,,"Uribitarte Ibiltokia, 1 / Bilbao",43.264483,-2.926262,ES:Euskotren:Zone:20:,,1,,,1,ES:Euskotren:Level:Level:1:,
ES:Euskotren:StopPlace:1479:,,Euskalduna,,Av de Abandoibarra / Bilbao,43.266261,-2.943894,ES:Euskotren:Zone:20:,,1,,,1,ES:Euskotren:Level:Level:1:,
ES:Euskotren:StopPlace:1480:,,Arriaga,,"Calle de la Ribera, 4 / Bilbao",43.25907,-2.925938,ES:Euskotren:Zone:20:,,1,,,1,ES:Euskotren:Level:Level:1:,
ES:Euskotren:StopPlace:1481:,,Basurto,,,43.257993,-2.949072,ES:Euskotren:Zone:20:,,1,,,1,ES:Euskotren:Level:Level:1:,
ES:Euskotren:StopPlace:1559:,,Gernikako Arbola,,Gernikako Arbola Kalea / Vitoria-Gasteiz,42.86482,-2.68086,ES:Euskotren:Zone:70:,,1,,,1,ES:Euskotren:Level:Level:1:,
ES:Euskotren:StopPlace:1560:,,Abetxuko,,Calle Araka / Vitoria-Gasteiz,42.876277,-2.679599,ES:Euskotren:Zone:70:,,1,,,1,ES:Euskotren:Level:Level:1:,
ES:Euskotren:StopPlace:1561:,,Lovaina,,"Magdalena Kalea, 12 / Vitoria-Gasteiz",42.846246,-2.67851,ES:Euskotren:Zone:70:,,1,,,1,ES:Euskotren:Level:Level:1:,
ES:Euskotren:StopPlace:1562:,,Landaberde,,"Landaberde Kalea, 15-29 / Vitoria-Gasteiz",42.866206,-2.698489,ES:Euskotren:Zone:70:,,1,,,1,ES:Euskotren:Level:Level:1:,
ES:Euskotren:StopPlace:1563:,,Forondako Atea/Portal De Foronda,,"Forondako Atea, 32 / Vitoria-Gasteiz",42.862903,-2.684497,ES:Euskotren:Zone:70:,,1,,,1,ES:Euskotren:Level:Level:1:,
ES:Euskotren:StopPlace:1564:,,Legebiltzarra/Parlamento,,"Alaba Jeneralaren Kalea, 1 / Vitoria-Gasteiz",42.845328,-2.674377,ES:Euskotren:Zone:70:,,1,,,1,ES:Euskotren:Level:Level:1:,
ES:Euskotren:StopPlace:1565:,,Ibaiondo,,"Landaberde Kalea, 4-10 / Vitoria-Gasteiz",42.864798,-2.702087,ES:Euskotren:Zone:70:,,1,,,1,ES:Euskotren:Level:Level:1:,
ES:Euskotren:StopPlace:1566:,,Europa,,"Gasteiz Hiribidea, 74 / Vitoria-Gasteiz",42.852541,-2.680251,ES:Euskotren:Zone:70:,,1,,,1,ES:Euskotren:Level:Level:1:,
ES:Euskotren:StopPlace:1567:,,Lakuabizkarra,,"Wellingtongo Dukea Kalea, 27 / Vitoria-Gasteiz",42.863127,-2.694579,ES:Euskotren:Zone:70:,,1,,,1,ES:Euskotren:Level:Level:1:,
ES:Euskotren:StopPlace:1568:,,Kristo,,"Calle del Cristo, 2 / Vitoria-Gasteiz",42.874085,-2.6776,ES:Euskotren:Zone:70:,,1,,,1,ES:Euskotren:Level:Level:1:,
ES:Euskotren:StopPlace:1569:,,Artapadura,,"Arriagako Atea, 76 / Vitoria-Gasteiz",42.869514,-2.680272,ES:Euskotren:Zone:70:,,1,,,1,ES:Euskotren:Level:Level:1:,
ES:Euskotren:StopPlace:1570:,,Arriaga,,"Arriagako Atea, 64 / Vitoria-Gasteiz",42.866638,-2.678658,ES:Euskotren:Zone:70:,,1,,,1,ES:Euskotren:Level:Level:1:,
ES:Euskotren:StopPlace:1571:,,Intermodal,,"Forondako Atea, 7 / Vitoria-Gasteiz",42.86036,-2.682798,ES:Euskotren:Zone:70:,,1,,,1,ES:Euskotren:Level:Level:1:,
ES:Euskotren:StopPlace:1572:,,Honduras,,"Honduras Kalea, 5-7 / Vitoria-Gasteiz",42.857247,-2.681146,ES:Euskotren:Zone:70:,,1,,,1,ES:Euskotren:Level:Level:1:,
ES:Euskotren:StopPlace:1573:,,Angulema,,"Angulema Kalea, 5 / Vitoria-Gasteiz",42.84336,-2.667699,ES:Euskotren:Zone:70:,,1,,,1,ES:Euskotren:Level:Level:1:,
ES:Euskotren:StopPlace:1574:,,Euskal Herria,,Euskal Herria Bulebarra / Vitoria-Gasteiz,42.85806,-2.685054,ES:Euskotren:Zone:70:,,1,,,1,ES:Euskotren:Level:Level:1:,
ES:Euskotren:StopPlace:1575:,,Antso Jakituna/Sancho El Sabio,,Antso Jakitunaren Kalea / Vitoria-Gasteiz,42.848114,-2.679946,ES:Euskotren:Zone:70:,,1,,,1,ES:Euskotren:Level:Level:1:,
ES:Euskotren:StopPlace:1576:,,Wellington,,"Wellingtongo Dukea Kalea, 23 / Vitoria-Gasteiz",42.85995,-2.69232,ES:Euskotren:Zone:70:,,1,,,1,ES:Euskotren:Level:Level:1:,
ES:Euskotren:StopPlace:1577:,,Kañabenta,,Kainabenta Plaza / Vitoria-Gasteiz,42.873816,-2.68126,ES:Euskotren:Zone:70:,,1,,,1,ES:Euskotren:Level:Level:1:,
ES:Euskotren:StopPlace:1578:,,Txagorritxu,,"Ronda de Circunvalación, 2-20 / Vitoria-Gasteiz",42.856916,-2.689028,ES:Euskotren:Zone:70:,,1,,,1,ES:Euskotren:Level:Level:1:,
ES:Euskotren:StopPlace:1580:,,La Escontrilla,,"Calle de Funikular, 30 / Valle de Trápaga-Trapagaran",43.301233,-3.04203,ES:Euskotren:Zone:50:,,1,,,2,ES:Euskotren:Level:Level:1:,
ES:Euskotren:StopPlace:1581:,,Larreineta,,"Barrio Reineta, 59 / Valle de Trápaga-Trapagaran",43.292442,-3.049087,ES:Euskotren:Zone:50:,,1,,,2,ES:Euskotren:Level:Level:1:,
ES:Euskotren:StopPlace:2576:,,Lutxana-Erandio,,San Jose de Lutxana Auzoa / Erandio,43.291318,-2.969768,ES:Euskotren:Zone:2:,,1,,,1,ES:Euskotren:Level:Level:0:,
ES:Euskotren:StopPlace:2577:,,Zazpikaleak/Casco Viejo-Bilbao,,Plazuela de San Nicolás / Bilbao,43.259983,-2.922197,ES:Euskotren:Zone:3:,,1,,,1,ES:Euskotren:Level:Level:0:,
ES:Euskotren:StopPlace:2579:,,Bermeo,,"Santamañe Kalea, s/n bajo / Bermeo",43.417771,-2.723233,ES:Euskotren:Zone:8:,,1,,,1,ES:Euskotren:Level:Level:0:,
ES:Euskotren:StopPlace:2580:,,Lasarte-Oria,,"Avd. Donostia, 1 bajo / Lasarte-Oria",43.270645,-2.020122,ES:Euskotren:Zone:42:,,1,,,1,ES:Euskotren:Level:Level:0:,
ES:Euskotren:StopPlace:2581:,,Amara-Donostia,,"Plaza Easo, 9 / Donostia-San Sebastián",43.313179,-1.981685,ES:Euskotren:Zone:42:,,1,,,1,ES:Euskotren:Level:Level:0:,
ES:Euskotren:StopPlace:2582:,,Hendaia,,"Boulevard de Gaulle, s/n / Hendaia",43.352637,-1.781958,ES:Euskotren:Zone:43:,,1,,,1,ES:Euskotren:Level:Level:0:,
ES:Euskotren:StopPlace:2584:,,San Pelaio-Zarautz,,"Calle de María Etxetxiki, 89-91 / Zarautz",43.283471,-2.160199,ES:Euskotren:Zone:41:,,1,,,1,ES:Euskotren:Level:Level:Minus1:,
ES:Euskotren:StopPlace:2585:,,Ola-Sondika,,"San Martin Bidea, 1 / Sondika",43.291849,-2.925227,ES:Euskotren:Zone:2:,,1,,,1,ES:Euskotren:Level:Level:0:,
ES:Euskotren:StopPlace:2586:,,Amorebieta Geralekua,,"Calle Txiki Otaegi, 5 / Amorebieta-Etxano",43.22182,-2.734876,ES:Euskotren:Zone:6:,,1,,,1,ES:Euskotren:Level:Level:0:,
ES:Euskotren:StopPlace:2587:,,Lemoa,,"Calle de la Estación, 10 / Lemoa",43.207092,-2.775247,ES:Euskotren:Zone:6:,,1,,,1,ES:Euskotren:Level:Level:0:,
ES:Euskotren:StopPlace:2588:,,Lurgorri-Gernika,,"Calle de Iparraguirre, 48 / Gernika-Lumo",43.306722,-2.680315,ES:Euskotren:Zone:8:,,1,,,1,ES:Euskotren:Level:Level:0:,
ES:Euskotren:StopPlace:2589:,,Irun,,"Paseo de Colón, 25 / Irun",43.341205,-1.796055,ES:Euskotren:Zone:43:,,1,,,1,ES:Euskotren:Level:Level:0:,
ES:Euskotren:StopPlace:2590:,,Anoeta-Donostia,,"Paseo de Anoeta, 32 / Donostia-San Sebastián",43.302085,-1.975353,ES:Euskotren:Zone:42:,,1,,,1,ES:Euskotren:Level:Level:0:,
ES:Euskotren:StopPlace:2591:,,Etxebarri,,"Calle de Santa Ana, 10 / Etxebarri",43.245623,-2.891068,ES:Euskotren:Zone:4:,,1,,,1,ES:Euskotren:Level:Level:0:,
ES:Euskotren:StopPlace:2592:,,Aia-Orio,,"Olazkoegia auzoa, 64, bajo / Aia",43.274231,-2.125866,ES:Euskotren:Zone:41:,,1,,,1,ES:Euskotren:Level:Level:0:,
ES:Euskotren:StopPlace:2593:,,Institutoa-Gernika,,"Calle de Carles Gongoiti, s/n / Gernika-Lumo",43.319882,-2.676842,ES:Euskotren:Zone:8:,,1,,,1,ES:Euskotren:Level:Level:0:,
ES:Euskotren:StopPlace:2594:,,Unibertsitatea-Eibar,,"Av de Otaola, 24B / Eibar",43.180662,-2.487442,ES:Euskotren:Zone:40:,,1,,,1,ES:Euskotren:Level:Level:0:,
ES:Euskotren:StopPlace:2595:,,Sondika,,"Mintxine bidea, 4 / Sondika",43.298293,-2.927764,ES:Euskotren:Zone:2:,,1,,,1,ES:Euskotren:Level:Level:0:,
ES:Euskotren:StopPlace:2596:,,Muxika,,"Barrio de la Astelarre, 93 / Muxika",43.286788,-2.689493,ES:Euskotren:Zone:8:,,1,,,1,ES:Euskotren:Level:Level:0:,
ES:Euskotren:StopPlace:2597:,,Matiko-Bilbao,,Calle Tiboli / Bilbao,43.268919,-2.925007,ES:Euskotren:Zone:3:,,1,,,1,ES:Euskotren:Level:Level:0:,
ES:Euskotren:StopPlace:2598:,,Zuhatzu-Galdakao,,"Calle Txomin Egileor, 48 / Galdakao",43.228896,-2.853572,ES:Euskotren:Zone:4:,,1,,,1,ES:Euskotren:Level:Level:0:,
ES:Euskotren:StopPlace:2599:,,Itsasbegi-Busturia,,"Barrio de Axpe, 138-141 / Busturia",43.3911,-2.693867,ES:Euskotren:Zone:8:,,1,,,1,ES:Euskotren:Level:Level:0:,
ES:Euskotren:StopPlace:2600:,,Berriz,,"Geltoki kalea, 2, bajo / Berriz",43.168405,-2.574515,ES:Euskotren:Zone:7:,,1,,,1,ES:Euskotren:Level:Level:0:,
ES:Euskotren:StopPlace:2601:,,Larrondo-Loiu,,"Calle Elotxelerri, s/n / Loiu",43.294299,-2.915778,ES:Euskotren:Zone:2:,,1,,,1,ES:Euskotren:Level:Level:0:,
ES:Euskotren:StopPlace:2602:,,Errotabarri-Ermua,,"Av de Guipuzkoa, 11-25 / Ermua",43.18314,-2.498927,ES:Euskotren:Zone:40:,,1,,,2,ES:Euskotren:Level:Level:0:,
ES:Euskotren:StopPlace:2603:,,Traña-Abadiño,,Calle de Trañaetxoste / Abadiño,43.165337,-2.612701,ES:Euskotren:Zone:7:,,1,,,1,ES:Euskotren:Level:Level:0:,
ES:Euskotren:StopPlace:2604:,,Zumaia,,"Calle de Estazioko, 1, bajo / Zumaia",43.291603,-2.251818,ES:Euskotren:Zone:41:,,1,,,1,ES:Euskotren:Level:Level:0:,
ES:Euskotren:StopPlace:2606:,,Euba-Amorebieta,,"Barrio de Euba, 20 / Amorebieta-Etxano",43.194827,-2.69674,ES:Euskotren:Zone:6:,,1,,,1,ES:Euskotren:Level:Level:0:,
ES:Euskotren:StopPlace:2607:,,Lezama,,"Barrio de Aretxalde, 78-84 / Lezama",43.273257,-2.835634,ES:Euskotren:Zone:2:,,1,,,1,ES:Euskotren:Level:Level:0:,
ES:Euskotren:StopPlace:2608:,,Loiola-Donostia,,"Calle Zeharbidea, 6 / Donostia-San Sebastián",43.310096,-1.968305,ES:Euskotren:Zone:42:,,1,,,1,ES:Euskotren:Level:Level:0:,
ES:Euskotren:StopPlace:2609:,,Txurdinaga-Bilbao,,Avda. Gabriel Aresti / Bilbao,43.258051,-2.906729,ES:Euskotren:Zone:3:,,1,,,0,ES:Euskotren:Level:Level:0:,
ES:Euskotren:StopPlace:2610:,,Galtzaraborda-Errenteria,,"Avda. Galtzaraborda, s/n / Errenteria",43.312407,-1.90685,ES:Euskotren:Zone:42:,,1,,,0,ES:Euskotren:Level:Level:0:,
ES:Euskotren:StopPlace:2611:,,Zangroiz-Sondika,,"Carr. Asua-Erletxes, 35 / Sondika",43.300349,-2.940859,ES:Euskotren:Zone:2:,,1,,,1,ES:Euskotren:Level:Level:0:,
ES:Euskotren:StopPlace:2612:,,Oiartzun,,"Barrio Arragua, s/n / Oiartzun",43.308619,-1.879725,ES:Euskotren:Zone:42:,,1,,,1,ES:Euskotren:Level:Level:0:,
ES:Euskotren:StopPlace:2613:,,Arroa-Zestoa,,"Barrio de San Isidro, 3 / Zestoa",43.278008,-2.270856,ES:Euskotren:Zone:41:,,1,,,1,ES:Euskotren:Level:Level:0:,
ES:Euskotren:StopPlace:2614:,,Derio,,"Barrio de Arteaga, 14 / Derio",43.290827,-2.887276,ES:Euskotren:Zone:2:,,1,,,1,ES:Euskotren:Level:Level:0:,
ES:Euskotren:StopPlace:2615:,,Axpe-Busturia,,"Barrio de Axpe, 35 / Busturia",43.380106,-2.693181,ES:Euskotren:Zone:8:,,1,,,1,ES:Euskotren:Level:Level:0:,
ES:Euskotren:StopPlace:2616:,,Mundaka,,"Calle Geltoki, 1 bajo / Mundaka",43.40887,-2.700911,ES:Euskotren:Zone:8:,,1,,,1,ES:Euskotren:Level:Level:0:,
ES:Euskotren:StopPlace:2617:,,Zurbaranbarri-Bilbao,,Calle Zumaia / Bilbao,43.264911,-2.914977,ES:Euskotren:Zone:3:,,1,,,1,ES:Euskotren:Level:Level:0:,
ES:Euskotren:StopPlace:2618:,,Durango,,"Calle Geltoki, 2 / Durango",43.169457,-2.634787,ES:Euskotren:Zone:7:,,1,,,1,ES:Euskotren:Level:Level:1:,
ES:Euskotren:StopPlace:2619:,,Eibar,,"Estación, 21, bajo / Eibar",43.186939,-2.465641,ES:Euskotren:Zone:40:,,1,,,1,ES:Euskotren:Level:Level:0:,
ES:Euskotren:StopPlace:2620:,,Bedia,,Barrio de Barroeta / Bedia,43.206171,-2.79803,ES:Euskotren:Zone:6:,,1,,,1,ES:Euskotren:Level:Level:0:,
ES:Euskotren:StopPlace:2621:,,Lugaritz-Donostia,,Paseo de Lugaritz / Donostia-San Sebastián,43.302417,-2.000701,ES:Euskotren:Zone:42:,,1,,,1,ES:Euskotren:Level:Level:0:,
ES:Euskotren:StopPlace:2622:,,Elgoibar,,"Trenbide kalea, 14, bajo / Elgoibar",43.213608,-2.415941,ES:Euskotren:Zone:40:,,1,,,1,ES:Euskotren:Level:Level:0:,
ES:Euskotren:StopPlace:2624:,,Herrera-Donostia,,"Avd. Jose Elosegi, 297 / Donostia-San Sebastián",43.319883,-1.937971,ES:Euskotren:Zone:42:,,1,,,1,ES:Euskotren:Level:Level:0:,
ES:Euskotren:StopPlace:2625:,,Fanderia-Errenteria,,Avda. Fanderia / Errenteria,43.308228,-1.889437,ES:Euskotren:Zone:42:,,1,,,1,ES:Euskotren:Level:Level:0:,
ES:Euskotren:StopPlace:2626:,,Altzola-Elgoibar,,"Calle de Donosti, 8 / Elgoibar",43.235874,-2.399523,ES:Euskotren:Zone:40:,,1,,,2,ES:Euskotren:Level:Level:0:,
ES:Euskotren:StopPlace:2627:,,San Lorentzo-Ermua,,Av de Guipuzkoa 35 / Ermua,43.179425,-2.495861,ES:Euskotren:Zone:40:,,1,,,1,ES:Euskotren:Level:Level:0:,
ES:Euskotren:StopPlace:2629:,,Elotxelerri-Loiu,,Camino de Molinaga / Loiu,43.294479,-2.905664,ES:Euskotren:Zone:2:,,1,,,1,ES:Euskotren:Level:Level:0:,
ES:Euskotren:StopPlace:2631:,,Altza-Donostia,,"Paseo de Larratxo, 95 / Donostia-San Sebastián",43.316946,-1.930062,ES:Euskotren:Zone:42:,,1,,,1,ES:Euskotren:Level:Level:0:,
ES:Euskotren:StopPlace:2632:,,Bentak-Irun,,Avda. Elizatxo / Irun,43.330398,-1.816814,ES:Euskotren:Zone:43:,,1,,,1,ES:Euskotren:Level:Level:0:,
ES:Euskotren:StopPlace:2633:,,Deba,,"Plaza Arakistain, 6 / Deba",43.293616,-2.355378,ES:Euskotren:Zone:40:,,1,,,1,ES:Euskotren:Level:Level:0:,
ES:Euskotren:StopPlace:2635:,,Amaña-Eibar,,Calle de Amaña / Eibar,43.184398,-2.480569,ES:Euskotren:Zone:40:,,1,,,1,ES:Euskotren:Level:Level:0:,
ES:Euskotren:StopPlace:2636:,,Belaskoenea-Irun,,Calle de los Balleneros / Irun,43.336498,-1.80327,ES:Euskotren:Zone:43:,,1,,,1,ES:Euskotren:Level:Level:0:,
ES:Euskotren:StopPlace:2637:,,Amorebieta Geltokia,,"Calle Sabino Arana, 42, bajo / Amorebieta-Etxano",43.216878,-2.736627,ES:Euskotren:Zone:6:,,1,,,1,ES:Euskotren:Level:Level:0:,
ES:Euskotren:StopPlace:2638:,,Kurtzea-Lezama,,"Barrio de Aretxalde,156 / Lezama",43.276579,-2.846344,ES:Euskotren:Zone:2:,,1,,,1,ES:Euskotren:Level:Level:0:,
ES:Euskotren:StopPlace:2639:,,Kukullaga-Etxebarri,,"C/ Bernar Etxepare, 33 / Etxebarri",43.251142,-2.889764,ES:Euskotren:Zone:18:,,1,,,1,ES:Euskotren:Level:Level:0:,
ES:Euskotren:StopPlace:2640:,,Azitain-Eibar,,"Calle de Barrena, 9-11 / Eibar",43.190407,-2.45419,ES:Euskotren:Zone:40:,,1,,,1,ES:Euskotren:Level:Level:0:,
ES:Euskotren:StopPlace:2641:,,Uribarri-Bilbao,,Calle Trauko / Bilbao,43.267102,-2.921277,ES:Euskotren:Zone:3:,,1,,,1,ES:Euskotren:Level:Level:0:,
ES:Euskotren:StopPlace:2642:,,Zamudio,,Mikel Zarate Plaza / Zamudio,43.284342,-2.864839,ES:Euskotren:Zone:2:,,1,,,1,ES:Euskotren:Level:Level:0:,
ES:Euskotren:StopPlace:2643:,,Forua,,"Barrio Elejalde, s/n / Forua",43.332384,-2.673426,ES:Euskotren:Zone:8:,,1,,,1,ES:Euskotren:Level:Level:0:,
ES:Euskotren:StopPlace:2645:,,Gernika,,"Plaza estación, s/n bajo / Gernika-Lumo",43.314559,-2.676106,ES:Euskotren:Zone:8:,,1,,,1,ES:Euskotren:Level:Level:0:,
ES:Euskotren:StopPlace:2646:,,Ariz-Basauri,,"Avd. Cervantes, 8 bajo / Basauri",43.240313,-2.879282,ES:Euskotren:Zone:4:,,1,,,1,ES:Euskotren:Level:Level:0:,
ES:Euskotren:StopPlace:2647:,,Añorga-Donostia,,"Avd. de Añorga, 12 / Donostia-San Sebastián",43.291513,-1.994673,ES:Euskotren:Zone:42:,,1,,,1,ES:Euskotren:Level:Level:0:,
ES:Euskotren:StopPlace:2648:,,Intxaurrondo-Donostia,,Plaza Sagastieder / Donostia-San Sebastián,43.314909,-1.954756,ES:Euskotren:Zone:42:,,1,,,1,ES:Euskotren:Level:Level:0:,
ES:Euskotren:StopPlace:2649:,,Ficoba-Irun,,Avda. de Iparralde / Irun,43.349495,-1.786201,ES:Euskotren:Zone:43:,,1,,,1,ES:Euskotren:Level:Level:0:,
ES:Euskotren:StopPlace:2650:,,Mendaro,,"Calle de José María Linazasoro, 9-11 / Mendaro",43.252152,-2.387913,ES:Euskotren:Zone:40:,,1,,,1,ES:Euskotren:Level:Level:0:,
ES:Euskotren:StopPlace:2651:,,Errekalde-Donostia,,Autovía del Norte / Donostia-San Sebastián,43.278846,-2.007148,ES:Euskotren:Zone:42:,,1,,,1,ES:Euskotren:Level:Level:0:,
ES:Euskotren:StopPlace:2652:,,Lekunbiz-Zamudio,,"Barrio de San Antolín, 27 / Zamudio",43.286699,-2.874526,ES:Euskotren:Zone:2:,,1,,,1,ES:Euskotren:Level:Level:0:,
ES:Euskotren:StopPlace:2653:,,Usurbil,,"Calle de Erribera, 25 / Usurbil",43.268748,-2.052937,ES:Euskotren:Zone:42:,,1,,,1,ES:Euskotren:Level:Level:0:,
ES:Euskotren:StopPlace:2654:,,Gaintxurizketa-Lezo,,Carretera Madrid-Irún / Lezo,43.32671,-1.857557,ES:Euskotren:Zone:42:,,1,,,1,ES:Euskotren:Level:Level:0:,
ES:Euskotren:StopPlace:2655:,,Zaldibar,,"Barrio de Okango, 31 / Zaldibar",43.171641,-2.547899,ES:Euskotren:Zone:7:,,1,,,1,ES:Euskotren:Level:Level:0:,
ES:Euskotren:StopPlace:2656:,,Ardantza-Eibar,,Plaza Untzaga / Eibar,43.184641,-2.473832,ES:Euskotren:Zone:40:,,1,,,1,ES:Euskotren:Level:Level:0:,
ES:Euskotren:StopPlace:2657:,,Zugaztieta-Muxika,,"Barrio de Zugastieta, 25 / Muxika",43.252154,-2.692748,ES:Euskotren:Zone:8:,,1,,,0,ES:Euskotren:Level:Level:0:,
ES:Euskotren:StopPlace:2658:,,Toletxegain-Elgoibar,,"Av de Pedro Muguruza, 6-8 / Elgoibar",43.217481,-2.409036,ES:Euskotren:Zone:40:,,1,,,1,ES:Euskotren:Level:Level:0:,
ES:Euskotren:StopPlace:2660:,,San Kristobal-Busturia,,"Barrio de Altamira, 9 / Busturia",43.367813,-2.690337,ES:Euskotren:Zone:8:,,1,,,1,ES:Euskotren:Level:Level:0:,
ES:Euskotren:StopPlace:2661:,,Usansolo,,"Calle de Oletxe, 48 / Usansolo",43.217819,-2.821656,ES:Euskotren:Zone:4:,,1,,,1,ES:Euskotren:Level:Level:0:,
ES:Euskotren:StopPlace:2663:,,Otxarkoaga-Bilbao,,Avda. Pau Casals / Bilbao,43.259503,-2.900123,ES:Euskotren:Zone:3:,,1,,,1,ES:Euskotren:Level:Level:0:,
ES:Euskotren:StopPlace:2664:,,Zarautz,,"Calle de Lapurdi, 2, bajo / Zarautz",43.284252,-2.17145,ES:Euskotren:Zone:41:,,1,,,0,ES:Euskotren:Level:Level:0:,
ES:Euskotren:StopPlace:2665:,,Errenteria,,"Avda. Pablo Iglesias, 16 / Errenteria",43.311307,-1.899174,ES:Euskotren:Zone:42:,,1,,,1,ES:Euskotren:Level:Level:0:,
ES:Euskotren:StopPlace:2666:,,Ermua,,"Calle Izelaieta, 21 / Ermua",43.185235,-2.501026,ES:Euskotren:Zone:40:,,1,,,1,ES:Euskotren:Level:Level:0:,
ES:Euskotren:StopPlace:2667:,,Pasaia,,"Zumalakarregi kalea, 8 / Pasaia",43.317912,-1.917488,ES:Euskotren:Zone:42:,,1,,,2,ES:Euskotren:Level:Level:0:,
ES:Euskotren:StopPlace:2669:,,Hegoalde,,Plaza de las Hebillas / Vitoria-Gasteiz,42.838825,-2.666329,ES:Euskotren:Zone:70:,,1,,,1,ES:Euskotren:Level:Level:1:,
ES:Euskotren:StopPlace:2670:,,Florida,,"C/Florida, 76 / Vitoria-Gasteiz",42.842071,-2.665088,ES:Euskotren:Zone:70:,,1,,,1,ES:Euskotren:Level:Level:1:,
ES:Euskotren:StopPlace:2671:,,Unibertsitatea,,"C/ Martinez Aragón, 13 / Vitoria-Gasteiz",42.837364,-2.67243,ES:Euskotren:Zone:70:,,1,,,1,ES:Euskotren:Level:Level:1:,
ES:Euskotren:StopPlace:2673:,,Abusu,,,43.245503,-2.915783,ES:Euskotren:Zone:20:,,1,,,1,ES:Euskotren:Level:Level:1:,
ES:Euskotren:StopPlace:2674:,,Bolueta,,"48004 Bilbao, Vizcaya / Bilbao",43.247252,-2.904919,ES:Euskotren:Zone:20:,,1,,,1,ES:Euskotren:Level:Level:1:,
ES:Euskotren:StopPlace:2675:,,Salburua,,"Avenida 8 de Marzo, 17 / Vitoria-Gasteiz",42.854489,-2.651874,ES:Euskotren:Zone:70:,,1,,,1,ES:Euskotren:Level:Level:1:,
ES:Euskotren:StopPlace:2676:,,La Unión,,"Av. Salburua, 8 / Vitoria-Gasteiz",42.849156,-2.650589,ES:Euskotren:Zone:70:,,1,,,1,ES:Euskotren:Level:Level:1:,
ES:Euskotren:StopPlace:2677:,,Santa Luzia,,"Calle Florida, 38 / Vitoria-Gasteiz",42.841606,-2.658713,ES:Euskotren:Zone:70:,,1,,,1,ES:Euskotren:Level:Level:1:,
ES:Euskotren:StopPlace:2678:,,Iliada,,"Paseo de la Iliada, 2 / Vitoria-Gasteiz",42.843377,-2.651488,ES:Euskotren:Zone:70:,,1,,,1,ES:Euskotren:Level:Level:1:,
ES:Euskotren:StopPlace:2679:,,Nikosia,,"Av. Salburua, 34 / Vitoria-Gasteiz",42.845215,-2.649645,ES:Euskotren:Zone:70:,,1,,,1,ES:Euskotren:Level:Level:1:,
ES:Euskotren:StopPlaceEntrance:2576_Entrada_E1:,,Irteera,,San Jose de Lutxana Auzoa / Erandio,43.291362,-2.969755,ES:Euskotren:Zone:2:,,2,ES:Euskotren:StopPlace:2576:,,1,ES:Euskotren:Level:Level:0:,
ES:Euskotren:StopPlaceEntrance:2577_Entrada_E1:,,Irteeera,,Plazuela de San Nicolás / Bilbao,43.259963,-2.922172,ES:Euskotren:Zone:3:,,2,ES:Euskotren:StopPlace:2577:,,1,ES:Euskotren:Level:Level:0:,
ES:Euskotren:StopPlaceEntrance:2579_Entrada_E1:,,Irteera (Kai Bidea),,"Santamañe Kalea, s/n bajo / Bermeo",43.41801,-2.723413,ES:Euskotren:Zone:8:,,2,ES:Euskotren:StopPlace:2579:,,2,ES:Euskotren:Level:Level:0:,
ES:Euskotren:StopPlaceEntrance:2579_Entrada_E2:,,Irteera (Igogailua),,"Santamañe Kalea, s/n bajo / Bermeo",43.417919,-2.723418,ES:Euskotren:Zone:8:,,2,ES:Euskotren:StopPlace:2579:,,1,ES:Euskotren:Level:Level:0:,
ES:Euskotren:StopPlaceEntrance:2580_Entrada_E1:,,Irteera,,"Avd. Donostia, 1 bajo / Lasarte-Oria",43.270637,-2.020092,ES:Euskotren:Zone:42:,,2,ES:Euskotren:StopPlace:2580:,,1,ES:Euskotren:Level:Level:0:,
ES:Euskotren:StopPlaceEntrance:2581_Entrada_E1:,,Irteera (Autonomia kalerako arrapala),,"Plaza Easo, 9 / Donostia-San Sebastián",43.31316,-1.981802,ES:Euskotren:Zone:42:,,2,ES:Euskotren:StopPlace:2581:,,1,ES:Euskotren:Level:Level:0:,
ES:Euskotren:StopPlaceEntrance:2581_Entrada_E2:,,Irteera (Easo enparantzarako eskailerak),,"Plaza Easo, 9 / Donostia-San Sebastián",43.313243,-1.981706,ES:Euskotren:Zone:42:,,2,ES:Euskotren:StopPlace:2581:,,2,ES:Euskotren:Level:Level:0:,
ES:Euskotren:StopPlaceEntrance:2581_Entrada_E3:,,Irteera (Easo kalerako arrapala),,"Plaza Easo, 9 / Donostia-San Sebastián",43.313256,-1.981533,ES:Euskotren:Zone:42:,,2,ES:Euskotren:StopPlace:2581:,,1,ES:Euskotren:Level:Level:0:,
ES:Euskotren:StopPlaceEntrance:2581_Entrada_E4:,,Irteera (Komisaldegi ondokoa),,"Plaza Easo, 9 / Donostia-San Sebastián",43.313076,-1.981275,ES:Euskotren:Zone:42:,,2,ES:Euskotren:StopPlace:2581:,,1,ES:Euskotren:Level:Level:0:,
ES:Euskotren:StopPlaceEntrance:2582_Entrada_E1:,,Irteera,,"Boulevard de Gaulle, s/n / Hendaia",43.352591,-1.782072,ES:Euskotren:Zone:43:,,2,ES:Euskotren:StopPlace:2582:,,1,ES:Euskotren:Level:Level:0:,
ES:Euskotren:StopPlaceEntrance:2584_Entrada_E1:,,Irteera,,"Calle de María Etxetxiki, 89-91 / Zarautz",43.283639,-2.160156,ES:Euskotren:Zone:41:,,2,ES:Euskotren:StopPlace:2584:,,1,ES:Euskotren:Level:Level:Minus1:,
ES:Euskotren:StopPlaceEntrance:2585_Entrada_E1:,,Irteera,,"San Martin Bidea, 1 / Sondika",43.291811,-2.925147,ES:Euskotren:Zone:2:,,2,ES:Euskotren:StopPlace:2585:,,1,ES:Euskotren:Level:Level:0:,
ES:Euskotren:StopPlaceEntrance:2586_Entrada_E1:,,Irteeera ,,"Calle Txiki Otaegi, 5 / Amorebieta-Etxano",43.221808,-2.734988,ES:Euskotren:Zone:6:,,2,ES:Euskotren:StopPlace:2586:,,1,ES:Euskotren:Level:Level:0:,
ES:Euskotren:StopPlaceEntrance:2587_Entrada_E1:,,Irteera (Estazio Auzoa),,"Calle de la Estación, 10 / Lemoa",43.207106,-2.775631,ES:Euskotren:Zone:6:,,2,ES:Euskotren:StopPlace:2587:,,1,ES:Euskotren:Level:Level:0:,
ES:Euskotren:StopPlaceEntrance:2588_Entrada_E1:,,Irteera (Iparragirre 13),,"Calle de Iparraguirre, 48 / Gernika-Lumo",43.30698,-2.680176,ES:Euskotren:Zone:8:,,2,ES:Euskotren:StopPlace:2588:,,1,ES:Euskotren:Level:Level:0:,
ES:Euskotren:StopPlaceEntrance:2588_Entrada_E2:,,Irteera (Iparragirre 62),,"Calle de Iparraguirre, 48 / Gernika-Lumo",43.306416,-2.680566,ES:Euskotren:Zone:8:,,2,ES:Euskotren:StopPlace:2588:,,1,ES:Euskotren:Level:Level:0:,
ES:Euskotren:StopPlaceEntrance:2589_Entrada_E1:,,Irteera (Colón),,"Paseo de Colón, 25 / Irun",43.340833,-1.796133,ES:Euskotren:Zone:43:,,2,ES:Euskotren:StopPlace:2589:,,1,ES:Euskotren:Level:Level:0:,
ES:Euskotren:StopPlaceEntrance:2589_Entrada_E2:,,Irteera 2 (Colón),,"Paseo de Colón, 25 / Irun",43.340876,-1.796195,ES:Euskotren:Zone:43:,,2,ES:Euskotren:StopPlace:2589:,,1,ES:Euskotren:Level:Level:Minus1:,
ES:Euskotren:StopPlaceEntrance:2589_Entrada_E3:,,Irteera (Cipriano Larrañaga),,"Paseo de Colón, 25 / Irun",43.341305,-1.795768,ES:Euskotren:Zone:43:,,2,ES:Euskotren:StopPlace:2589:,,1,ES:Euskotren:Level:Level:0:,
ES:Euskotren:StopPlaceEntrance:2590_Entrada_E1:,,Irteera,,"Paseo de Anoeta, 32 / Donostia-San Sebastián",43.30219,-1.975035,ES:Euskotren:Zone:42:,,2,ES:Euskotren:StopPlace:2590:,,1,ES:Euskotren:Level:Level:0:,
ES:Euskotren:StopPlaceEntrance:2591_Entrada_E1:,,Irteeera,,"Calle de Santa Ana, 10 / Etxebarri",43.245592,-2.89104,ES:Euskotren:Zone:4:,,2,ES:Euskotren:StopPlace:2591:,,1,ES:Euskotren:Level:Level:0:,
ES:Euskotren:StopPlaceEntrance:2592_Entrada_E1:,,Irteera (N634 gaineko pasabidea),,"Olazkoegia auzoa, 64, bajo / Aia",43.274456,-2.125731,ES:Euskotren:Zone:41:,,2,ES:Euskotren:StopPlace:2592:,,1,ES:Euskotren:Level:Level:Minus1:,
ES:Euskotren:StopPlaceEntrance:2592_Entrada_E2:,,Irteera (Aparkalekuko eskailerak),,"Olazkoegia auzoa, 64, bajo / Aia",43.274281,-2.126246,ES:Euskotren:Zone:41:,,2,ES:Euskotren:StopPlace:2592:,,2,ES:Euskotren:Level:Level:Minus1:,
ES:Euskotren:StopPlaceEntrance:2592_Entrada_E3:,,Irteera (Aparkalekuko igogailua),,"Olazkoegia auzoa, 64, bajo / Aia",43.274273,-2.125878,ES:Euskotren:Zone:41:,,2,ES:Euskotren:StopPlace:2592:,,1,ES:Euskotren:Level:Level:Minus1:,
ES:Euskotren:StopPlaceEntrance:2593_Entrada_E1:,,Irteeera,,"Calle de Carles Gongoiti, s/n / Gernika-Lumo",43.319913,-2.676873,ES:Euskotren:Zone:8:,,2,ES:Euskotren:StopPlace:2593:,,1,ES:Euskotren:Level:Level:0:,
ES:Euskotren:StopPlaceEntrance:2594_Entrada_E1:,,Irteera (Tiburtzio Anitua),,"Av de Otaola, 24B / Eibar",43.180655,-2.48749,ES:Euskotren:Zone:40:,,2,ES:Euskotren:StopPlace:2594:,,2,ES:Euskotren:Level:Level:1:,
ES:Euskotren:StopPlaceEntrance:2594_Entrada_E2:,,Irteera (Torrekua),,"Av de Otaola, 24B / Eibar",43.180655,-2.48749,ES:Euskotren:Zone:40:,,2,ES:Euskotren:StopPlace:2594:,,1,ES:Euskotren:Level:Level:0:,
ES:Euskotren:StopPlaceEntrance:2595_Entrada_E1:,,Irteera,,"Mintxine bidea, 4 / Sondika",43.298293,-2.927641,ES:Euskotren:Zone:2:,,2,ES:Euskotren:StopPlace:2595:,,1,ES:Euskotren:Level:Level:0:,
ES:Euskotren:StopPlaceEntrance:2596_Entrada_E1:,,Irteeera (BI-635),,"Barrio de la Astelarre, 93 / Muxika",43.287138,-2.689444,ES:Euskotren:Zone:8:,,2,ES:Euskotren:StopPlace:2596:,,1,ES:Euskotren:Level:Level:0:,
ES:Euskotren:StopPlaceEntrance:2596_Entrada_E2:,,Irteeera (Geltokiko eraikina),,"Barrio de la Astelarre, 93 / Muxika",43.286855,-2.689521,ES:Euskotren:Zone:8:,,2,ES:Euskotren:StopPlace:2596:,,1,ES:Euskotren:Level:Level:0:,
ES:Euskotren:StopPlaceEntrance:2597_Entrada_E1:,,Irteera,,Calle Tiboli / Bilbao,43.268945,-2.92505,ES:Euskotren:Zone:3:,,2,ES:Euskotren:StopPlace:2597:,,1,ES:Euskotren:Level:Level:0:,
ES:Euskotren:StopPlaceEntrance:2598_Entrada_E1:,,Irteera (Parking),,"Calle Txomin Egileor, 48 / Galdakao",43.228867,-2.854227,ES:Euskotren:Zone:4:,,2,ES:Euskotren:StopPlace:2598:,,2,ES:Euskotren:Level:Level:0:,
ES:Euskotren:StopPlaceEntrance:2598_Entrada_E2:,,Irteera (Edificio),,"Calle Txomin Egileor, 48 / Galdakao",43.228935,-2.85351,ES:Euskotren:Zone:4:,,2,ES:Euskotren:StopPlace:2598:,,1,ES:Euskotren:Level:Level:0:,
ES:Euskotren:StopPlaceEntrance:2598_Entrada_E3:,,Irteera (Txomin Egileor),,"Calle Txomin Egileor, 48 / Galdakao",43.228883,-2.853389,ES:Euskotren:Zone:4:,,2,ES:Euskotren:StopPlace:2598:,,1,ES:Euskotren:Level:Level:0:,
ES:Euskotren:StopPlaceEntrance:2598_Entrada_E4:,,Irteera (Fábrica Explosivos),,"Calle Txomin Egileor, 48 / Galdakao",43.228751,-2.853473,ES:Euskotren:Zone:4:,,2,ES:Euskotren:StopPlace:2598:,,1,ES:Euskotren:Level:Level:0:,
ES:Euskotren:StopPlaceEntrance:2599_Entrada_E1:,,Irteera,,"Barrio de Axpe, 138-141 / Busturia",43.390443,-2.693605,ES:Euskotren:Zone:8:,,2,ES:Euskotren:StopPlace:2599:,,1,ES:Euskotren:Level:Level:0:,
ES:Euskotren:StopPlaceEntrance:2599_Entrada_E2:,,Irteera (Geltokiko hegoaldetik),,"Barrio de Axpe, 138-141 / Busturia",43.390949,-2.693801,ES:Euskotren:Zone:8:,,2,ES:Euskotren:StopPlace:2599:,,2,ES:Euskotren:Level:Level:0:,
ES:Euskotren:StopPlaceEntrance:2599_Entrada_E3:,,Irteera (Geltokiko iparraldetik),,"Barrio de Axpe, 138-141 / Busturia",43.39121,-2.69395,ES:Euskotren:Zone:8:,,2,ES:Euskotren:StopPlace:2599:,,1,ES:Euskotren:Level:Level:0:,
ES:Euskotren:StopPlaceEntrance:2599_Entrada_E4:,,Irteera (Sukarrietatik),,"Barrio de Axpe, 138-141 / Busturia",43.391562,-2.694038,ES:Euskotren:Zone:8:,,2,ES:Euskotren:StopPlace:2599:,,1,ES:Euskotren:Level:Level:0:,
ES:Euskotren:StopPlaceEntrance:2600_Entrada_E1:,,Irteeera (Geltoki kalea),,"Geltoki kalea, 2, bajo / Berriz",43.168829,-2.574356,ES:Euskotren:Zone:7:,,2,ES:Euskotren:StopPlace:2600:,,1,ES:Euskotren:Level:Level:0:,
ES:Euskotren:StopPlaceEntrance:2600_Entrada_E2:,,Irteeera (Arkaraz kalea),,"Geltoki kalea, 2, bajo / Berriz",43.168302,-2.574343,ES:Euskotren:Zone:7:,,2,ES:Euskotren:StopPlace:2600:,,1,ES:Euskotren:Level:Level:0:,
ES:Euskotren:StopPlaceEntrance:2601_Entrada_E1:,,Irteera,,"Calle Elotxelerri, s/n / Loiu",43.29409,-2.915302,ES:Euskotren:Zone:2:,,2,ES:Euskotren:StopPlace:2601:,,1,ES:Euskotren:Level:Level:0:,
ES:Euskotren:StopPlaceEntrance:2601_Entrada_E2:,,Irteera,,"Calle Elotxelerri, s/n / Loiu",43.294184,-2.914873,ES:Euskotren:Zone:2:,,2,ES:Euskotren:StopPlace:2601:,,1,ES:Euskotren:Level:Level:0:,
ES:Euskotren:StopPlaceEntrance:2602_Entrada_E1:,,Irteera,,"Av de Guipuzkoa, 11-25 / Ermua",43.182915,-2.498922,ES:Euskotren:Zone:40:,,2,ES:Euskotren:StopPlace:2602:,,2,ES:Euskotren:Level:Level:0:,
ES:Euskotren:StopPlaceEntrance:2603_Entrada_E1:,,Irteera,,Calle de Trañaetxoste / Abadiño,43.165309,-2.612661,ES:Euskotren:Zone:7:,,2,ES:Euskotren:StopPlace:2603:,,1,ES:Euskotren:Level:Level:0:,
ES:Euskotren:StopPlaceEntrance:2604_Entrada_E1:,,Irteera (Behekoa),,"Calle de Estazioko, 1, bajo / Zumaia",43.291975,-2.251763,ES:Euskotren:Zone:41:,,2,ES:Euskotren:StopPlace:2604:,,1,ES:Euskotren:Level:Level:Minus1:,
ES:Euskotren:StopPlaceEntrance:2604_Entrada_E2:,,Irteera (Goikoa),,"Calle de Estazioko, 1, bajo / Zumaia",43.291591,-2.251871,ES:Euskotren:Zone:41:,,2,ES:Euskotren:StopPlace:2604:,,1,ES:Euskotren:Level:Level:0:,
ES:Euskotren:StopPlaceEntrance:2606_Entrada_E1:,,Irteera,,"Barrio de Euba, 20 / Amorebieta-Etxano",43.19484,-2.696775,ES:Euskotren:Zone:6:,,2,ES:Euskotren:StopPlace:2606:,,1,ES:Euskotren:Level:Level:0:,
ES:Euskotren:StopPlaceEntrance:2607_Entrada_E1:,,Irteera (Barrio Aretxalde),,"Barrio de Aretxalde, 78-84 / Lezama",43.273491,-2.835779,ES:Euskotren:Zone:2:,,2,ES:Euskotren:StopPlace:2607:,,1,ES:Euskotren:Level:Level:0:,
ES:Euskotren:StopPlaceEntrance:2608_Entrada_E1:,,Irteera (Aloña Mendilerroa kalea),,"Calle Zeharbidea, 6 / Donostia-San Sebastián",43.310625,-1.967519,ES:Euskotren:Zone:42:,,2,ES:Euskotren:StopPlace:2608:,,1,ES:Euskotren:Level:Level:0:,
ES:Euskotren:StopPlaceEntrance:2608_Entrada_E2:,,Irteera (Urbia kalea),,"Calle Zeharbidea, 6 / Donostia-San Sebastián",43.310796,-1.967629,ES:Euskotren:Zone:42:,,2,ES:Euskotren:StopPlace:2608:,,1,ES:Euskotren:Level:Level:0:,
ES:Euskotren:StopPlaceEntrance:2608_Entrada_E3:,,Irteera (La Salle),,"Calle Zeharbidea, 6 / Donostia-San Sebastián",43.310106,-1.968506,ES:Euskotren:Zone:42:,,2,ES:Euskotren:StopPlace:2608:,,2,ES:Euskotren:Level:Level:1:,
ES:Euskotren:StopPlaceEntrance:2608_Entrada_E4:,,Irteera (La Salle),,"Calle Zeharbidea, 6 / Donostia-San Sebastián",43.310235,-1.968624,ES:Euskotren:Zone:42:,,2,ES:Euskotren:StopPlace:2608:,,2,ES:Euskotren:Level:Level:1:,
ES:Euskotren:StopPlaceEntrance:2609_Entrada_E1:,,Irteera,,Avda. Gabriel Aresti / Bilbao,43.257983,-2.906734,ES:Euskotren:Zone:3:,,2,ES:Euskotren:StopPlace:2609:,,0,ES:Euskotren:Level:Level:0:,
ES:Euskotren:StopPlaceEntrance:2609_Entrada_E2:,,Irteera,,Avda. Gabriel Aresti / Bilbao,43.257983,-2.906734,ES:Euskotren:Zone:3:,,2,ES:Euskotren:StopPlace:2609:,,0,ES:Euskotren:Level:Level:0:,
ES:Euskotren:StopPlaceEntrance:2609_Entrada_E3:,,Irteera,,Avda. Gabriel Aresti / Bilbao,43.259595,-2.907823,ES:Euskotren:Zone:3:,,2,ES:Euskotren:StopPlace:2609:,,0,ES:Euskotren:Level:Level:0:,
ES:Euskotren:StopPlaceEntrance:2609_Entrada_E4:,,Irteera,,Avda. Gabriel Aresti / Bilbao,43.257991,-2.906718,ES:Euskotren:Zone:3:,,2,ES:Euskotren:StopPlace:2609:,,0,ES:Euskotren:Level:Level:0:,
ES:Euskotren:StopPlaceEntrance:2610_Entrada_E1:,,Irteera,,"Avda. Galtzaraborda, s/n / Errenteria",43.312407,-1.905939,ES:Euskotren:Zone:42:,,2,ES:Euskotren:StopPlace:2610:,,1,ES:Euskotren:Level:Level:0:,
ES:Euskotren:StopPlaceEntrance:2611_Entrada_E1:,,Irteera,,"Carr. Asua-Erletxes, 35 / Sondika",43.300331,-2.940957,ES:Euskotren:Zone:2:,,2,ES:Euskotren:StopPlace:2611:,,1,ES:Euskotren:Level:Level:0:,
ES:Euskotren:StopPlaceEntrance:2612_Entrada_E1:,,Irteera,,"Barrio Arragua, s/n / Oiartzun",43.308605,-1.879944,ES:Euskotren:Zone:42:,,2,ES:Euskotren:StopPlace:2612:,,1,ES:Euskotren:Level:Level:0:,
ES:Euskotren:StopPlaceEntrance:2613_Entrada_E1:,,Irteera,,"Barrio de San Isidro, 3 / Zestoa",43.278064,-2.270868,ES:Euskotren:Zone:41:,,2,ES:Euskotren:StopPlace:2613:,,1,ES:Euskotren:Level:Level:0:,
ES:Euskotren:StopPlaceEntrance:2614_Entrada_E1:,,Irteera,,"Barrio de Arteaga, 14 / Derio",43.290916,-2.886621,ES:Euskotren:Zone:2:,,2,ES:Euskotren:StopPlace:2614:,,2,ES:Euskotren:Level:Level:0:,
ES:Euskotren:StopPlaceEntrance:2614_Entrada_E2:,,Irteera,,"Barrio de Arteaga, 14 / Derio",43.290946,-2.886767,ES:Euskotren:Zone:2:,,2,ES:Euskotren:StopPlace:2614:,,1,ES:Euskotren:Level:Level:0:,
ES:Euskotren:StopPlaceEntrance:2614_Entrada_E3:,,Irteera,,"Barrio de Arteaga, 14 / Derio",43.290863,-2.887587,ES:Euskotren:Zone:2:,,2,ES:Euskotren:StopPlace:2614:,,1,ES:Euskotren:Level:Level:0:,
ES:Euskotren:StopPlaceEntrance:2614_Entrada_E4:,,Irteera,,"Barrio de Arteaga, 14 / Derio",43.29052,-2.886124,ES:Euskotren:Zone:2:,,2,ES:Euskotren:StopPlace:2614:,,1,ES:Euskotren:Level:Level:0:,
ES:Euskotren:StopPlaceEntrance:2615_Entrada_E1:,,Irteeera,,"Barrio de Axpe, 35 / Busturia",43.380125,-2.693183,ES:Euskotren:Zone:8:,,2,ES:Euskotren:StopPlace:2615:,,1,ES:Euskotren:Level:Level:0:,
ES:Euskotren:StopPlaceEntrance:2616_Entrada_E1:,,Irteeera,,"Calle Geltoki, 1 bajo / Mundaka",43.408873,-2.700842,ES:Euskotren:Zone:8:,,2,ES:Euskotren:StopPlace:2616:,,1,ES:Euskotren:Level:Level:0:,
ES:Euskotren:StopPlaceEntrance:2617_Entrada_E1:,,Irteera (Vía Vieja de Lezama),,Calle Zumaia / Bilbao,43.264899,-2.913396,ES:Euskotren:Zone:3:,,2,ES:Euskotren:StopPlace:2617:,,1,ES:Euskotren:Level:Level:1:,
ES:Euskotren:StopPlaceEntrance:2617_Entrada_E2:,,Irteeera (Plaza Iturriondo),,Calle Zumaia / Bilbao,43.264131,-2.913121,ES:Euskotren:Zone:3:,,2,ES:Euskotren:StopPlace:2617:,,1,ES:Euskotren:Level:Level:1:,
ES:Euskotren:StopPlaceEntrance:2617_Entrada_E3:,,Irteera (Zumaia),,Calle Zumaia / Bilbao,43.26491,-2.914975,ES:Euskotren:Zone:3:,,2,ES:Euskotren:StopPlace:2617:,,1,ES:Euskotren:Level:Level:0:,
ES:Euskotren:StopPlaceEntrance:2618_Entrada_E1:,,Irteera (Askatasun Etorbidea),,"Calle Geltoki, 2 / Durango",43.169233,-2.63505,ES:Euskotren:Zone:7:,,2,ES:Euskotren:StopPlace:2618:,,1,ES:Euskotren:Level:Level:1:,
ES:Euskotren:StopPlaceEntrance:2618_Entrada_E2:,,Irteera (Ezkurdi),,"Calle Geltoki, 2 / Durango",43.169433,-2.634134,ES:Euskotren:Zone:7:,,2,ES:Euskotren:StopPlace:2618:,,1,ES:Euskotren:Level:Level:1:,
ES:Euskotren:StopPlaceEntrance:2618_Entrada_E3:,,Irteera (Ezkurdi Igogailua),,"Calle Geltoki, 2 / Durango",43.169593,-2.634542,ES:Euskotren:Zone:7:,,2,ES:Euskotren:StopPlace:2618:,,1,ES:Euskotren:Level:Level:1:,
ES:Euskotren:StopPlaceEntrance:2619_Entrada_E1:,,Irteera,,"Estación, 21, bajo / Eibar",43.186902,-2.465768,ES:Euskotren:Zone:40:,,2,ES:Euskotren:StopPlace:2619:,,1,ES:Euskotren:Level:Level:0:,
ES:Euskotren:StopPlaceEntrance:2620_Entrada_E1:,,Irteeera,,Barrio de Barroeta / Bedia,43.206327,-2.798004,ES:Euskotren:Zone:6:,,2,ES:Euskotren:StopPlace:2620:,,1,ES:Euskotren:Level:Level:0:,
ES:Euskotren:StopPlaceEntrance:2621_Entrada_E1:,,Irteera,,Paseo de Lugaritz / Donostia-San Sebastián,43.302385,-2.000805,ES:Euskotren:Zone:42:,,2,ES:Euskotren:StopPlace:2621:,,1,ES:Euskotren:Level:Level:0:,
ES:Euskotren:StopPlaceEntrance:2622_Entrada_E1:,,Irteera (Kanpokoa),,"Trenbide kalea, 14, bajo / Elgoibar",43.213498,-2.416054,ES:Euskotren:Zone:40:,,2,ES:Euskotren:StopPlace:2622:,,1,ES:Euskotren:Level:Level:0:,
ES:Euskotren:StopPlaceEntrance:2622_Entrada_E2:,,Irteera (Eraikinetik),,"Trenbide kalea, 14, bajo / Elgoibar",43.213605,-2.415938,ES:Euskotren:Zone:40:,,2,ES:Euskotren:StopPlace:2622:,,1,ES:Euskotren:Level:Level:0:,
ES:Euskotren:StopPlaceEntrance:2624_Entrada_E1:,,Irteera,,"Avd. Jose Elosegi, 297 / Donostia-San Sebastián",43.319878,-1.937997,ES:Euskotren:Zone:42:,,2,ES:Euskotren:StopPlace:2624:,,1,ES:Euskotren:Level:Level:0:,
ES:Euskotren:StopPlaceEntrance:2625_Entrada_E1:,,Irteera (Fanderia Kalea),,Avda. Fanderia / Errenteria,43.308315,-1.889456,ES:Euskotren:Zone:42:,,2,ES:Euskotren:StopPlace:2625:,,1,ES:Euskotren:Level:Level:Minus1:,
ES:Euskotren:StopPlaceEntrance:2625_Entrada_E2:,,Irteera (Erramon Astibia),,Avda. Fanderia / Errenteria,43.308026,-1.889392,ES:Euskotren:Zone:42:,,2,ES:Euskotren:StopPlace:2625:,,1,ES:Euskotren:Level:Level:1:,
ES:Euskotren:StopPlaceEntrance:2626_Entrada_E1:,,Irteera (Mendebaldea),,"Calle de Donosti, 8 / Elgoibar",43.235915,-2.400003,ES:Euskotren:Zone:40:,,2,ES:Euskotren:StopPlace:2626:,,2,ES:Euskotren:Level:Level:0:,
ES:Euskotren:StopPlaceEntrance:2626_Entrada_E2:,,Irteera (Ekialdea),,"Calle de Donosti, 8 / Elgoibar",43.236158,-2.399222,ES:Euskotren:Zone:40:,,2,ES:Euskotren:StopPlace:2626:,,2,ES:Euskotren:Level:Level:0:,
ES:Euskotren:StopPlaceEntrance:2627_Entrada_E1:,,Irteera,,Av de Guipuzkoa 35 / Ermua,43.179417,-2.495876,ES:Euskotren:Zone:40:,,2,ES:Euskotren:StopPlace:2627:,,1,ES:Euskotren:Level:Level:0:,
ES:Euskotren:StopPlaceEntrance:2629_Entrada_E1:,,Irteera,,Camino de Molinaga / Loiu,43.29446,-2.905451,ES:Euskotren:Zone:2:,,2,ES:Euskotren:StopPlace:2629:,,1,ES:Euskotren:Level:Level:0:,
ES:Euskotren:StopPlaceEntrance:2631_Entrada_E1:,,Irteera (Santa Barbara),,"Paseo de Larratxo, 95 / Donostia-San Sebastián",43.316939,-1.93007,ES:Euskotren:Zone:42:,,2,ES:Euskotren:StopPlace:2631:,,2,ES:Euskotren:Level:Level:0:,
ES:Euskotren:StopPlaceEntrance:2631_Entrada_E2:,,Irteera (Larratxo),,"Paseo de Larratxo, 95 / Donostia-San Sebastián",43.316672,-1.932916,ES:Euskotren:Zone:42:,,2,ES:Euskotren:StopPlace:2631:,,2,ES:Euskotren:Level:Level:0:,
ES:Euskotren:StopPlaceEntrance:2631_Entrada_E3:,,Irteera (Igogailua),,"Paseo de Larratxo, 95 / Donostia-San Sebastián",43.31645,-1.931511,ES:Euskotren:Zone:42:,,2,ES:Euskotren:StopPlace:2631:,,1,ES:Euskotren:Level:Level:0:,
ES:Euskotren:StopPlaceEntrance:2632_Entrada_E1:,,Irteera,,Avda. Elizatxo / Irun,43.330294,-1.816892,ES:Euskotren:Zone:43:,,2,ES:Euskotren:StopPlace:2632:,,1,ES:Euskotren:Level:Level:0:,
ES:Euskotren:StopPlaceEntrance:2633_Entrada_E1:,,"Irteera (2. nasarakao sarrera zaharra, eraikinetik)",,"Plaza Arakistain, 6 / Deba",43.293609,-2.355287,ES:Euskotren:Zone:40:,,2,ES:Euskotren:StopPlace:2633:,,2,ES:Euskotren:Level:Level:0:,
ES:Euskotren:StopPlaceEntrance:2633_Entrada_E2:,,Irteera (2. nasarako sarrera berria),,"Plaza Arakistain, 6 / Deba",43.29384,-2.355316,ES:Euskotren:Zone:40:,,2,ES:Euskotren:StopPlace:2633:,,1,ES:Euskotren:Level:Level:0:,
ES:Euskotren:StopPlaceEntrance:2633_Entrada_E3:,,Irteera (1. nasarako sarrera herri aldetik),,"Plaza Arakistain, 6 / Deba",43.294298,-2.355362,ES:Euskotren:Zone:40:,,2,ES:Euskotren:StopPlace:2633:,,1,ES:Euskotren:Level:Level:0:,
ES:Euskotren:StopPlaceEntrance:2633_Entrada_E4:,,Irteera (1. nasarako sarrera kai aldetik),,"Plaza Arakistain, 6 / Deba",43.29432,-2.355566,ES:Euskotren:Zone:40:,,2,ES:Euskotren:StopPlace:2633:,,1,ES:Euskotren:Level:Level:0:,
ES:Euskotren:StopPlaceEntrance:2635_Entrada_E1:,,Irteeera (Torrekua),,Calle de Amaña / Eibar,43.184348,-2.480614,ES:Euskotren:Zone:40:,,2,ES:Euskotren:StopPlace:2635:,,2,ES:Euskotren:Level:Level:0:,
ES:Euskotren:StopPlaceEntrance:2635_Entrada_E2:,,Irteeera (Torrekua Igogailua),,Calle de Amaña / Eibar,43.184482,-2.480429,ES:Euskotren:Zone:40:,,2,ES:Euskotren:StopPlace:2635:,,1,ES:Euskotren:Level:Level:0:,
ES:Euskotren:StopPlaceEntrance:2636_Entrada_E1:,,Irteera ,,Calle de los Balleneros / Irun,43.336496,-1.803283,ES:Euskotren:Zone:43:,,2,ES:Euskotren:StopPlace:2636:,,1,ES:Euskotren:Level:Level:0:,
ES:Euskotren:StopPlaceEntrance:2637_Entrada_E1:,,Irteera,,"Calle Sabino Arana, 42, bajo / Amorebieta-Etxano",43.216857,-2.73659,ES:Euskotren:Zone:6:,,2,ES:Euskotren:StopPlace:2637:,,1,ES:Euskotren:Level:Level:0:,
ES:Euskotren:StopPlaceEntrance:2638_Entrada_E1:,,Irteera,,"Barrio de Aretxalde,156 / Lezama",43.276494,-2.845999,ES:Euskotren:Zone:2:,,2,ES:Euskotren:StopPlace:2638:,,1,ES:Euskotren:Level:Level:0:,
ES:Euskotren:StopPlaceEntrance:2638_Entrada_E2:,,Irteera,,"Barrio de Aretxalde,156 / Lezama",43.27644,-2.846216,ES:Euskotren:Zone:2:,,2,ES:Euskotren:StopPlace:2638:,,1,ES:Euskotren:Level:Level:0:,
ES:Euskotren:StopPlaceEntrance:2639_Entrada_E1:,,Irteeera (Acceso a la Iglesía),,"C/ Bernar Etxepare, 33 / Etxebarri",43.251891,-2.886943,ES:Euskotren:Zone:18:,,2,ES:Euskotren:StopPlace:2639:,,1,ES:Euskotren:Level:Level:1:,
ES:Euskotren:StopPlaceEntrance:2639_Entrada_E2:,,Irteeera (Acceso Barrio Kukullaga),,"C/ Bernar Etxepare, 33 / Etxebarri",43.251618,-2.887772,ES:Euskotren:Zone:18:,,2,ES:Euskotren:StopPlace:2639:,,1,ES:Euskotren:Level:Level:1:,
ES:Euskotren:StopPlaceEntrance:2639_Entrada_E3:,,Irteeera (Forua),,"C/ Bernar Etxepare, 33 / Etxebarri",43.250978,-2.889929,ES:Euskotren:Zone:18:,,2,ES:Euskotren:StopPlace:2639:,,2,ES:Euskotren:Level:Level:0:,
ES:Euskotren:StopPlaceEntrance:2639_Entrada_E4:,,Irteeera (Ascesnor Forua),,"C/ Bernar Etxepare, 33 / Etxebarri",43.251268,-2.889856,ES:Euskotren:Zone:18:,,2,ES:Euskotren:StopPlace:2639:,,1,ES:Euskotren:Level:Level:0:,
ES:Euskotren:StopPlaceEntrance:2640_Entrada_E1:,,Irteera,,"Calle de Barrena, 9-11 / Eibar",43.190405,-2.454225,ES:Euskotren:Zone:40:,,2,ES:Euskotren:StopPlace:2640:,,1,ES:Euskotren:Level:Level:0:,
ES:Euskotren:StopPlaceEntrance:2641_Entrada_E1:,,Irteeera (Zumalakarregi),,Calle Trauko / Bilbao,43.265525,-2.920582,ES:Euskotren:Zone:3:,,2,ES:Euskotren:StopPlace:2641:,,1,ES:Euskotren:Level:Level:0:,
ES:Euskotren:StopPlaceEntrance:2641_Entrada_E2:,,Irteeera (Plaza de las Escuelas),,Calle Trauko / Bilbao,43.267126,-2.921317,ES:Euskotren:Zone:3:,,2,ES:Euskotren:StopPlace:2641:,,2,ES:Euskotren:Level:Level:1:,
ES:Euskotren:StopPlaceEntrance:2641_Entrada_E3:,,Irteeera (Ascensor Plaza de las Escuelas),,Calle Trauko / Bilbao,43.266832,-2.920831,ES:Euskotren:Zone:3:,,2,ES:Euskotren:StopPlace:2641:,,1,ES:Euskotren:Level:Level:1:,
ES:Euskotren:StopPlaceEntrance:2641_Entrada_E4:,,Irteeera (Travesía C),,Calle Trauko / Bilbao,43.268187,-2.920416,ES:Euskotren:Zone:3:,,2,ES:Euskotren:StopPlace:2641:,,2,ES:Euskotren:Level:Level:1:,
ES:Euskotren:StopPlaceEntrance:2641_Entrada_E5:,,Irteeera (Ascensor Travesía C),,Calle Trauko / Bilbao,43.267786,-2.919568,ES:Euskotren:Zone:3:,,2,ES:Euskotren:StopPlace:2641:,,1,ES:Euskotren:Level:Level:1:,
ES:Euskotren:StopPlaceEntrance:2641_Entrada_E6:,,Irteeera (San Valentín de Berriotxoa),,Calle Trauko / Bilbao,43.266597,-2.918062,ES:Euskotren:Zone:3:,,2,ES:Euskotren:StopPlace:2641:,,2,ES:Euskotren:Level:Level:1:,
ES:Euskotren:StopPlaceEntrance:2642_Entrada_E1:,,Irteera,,Mikel Zarate Plaza / Zamudio,43.284397,-2.864788,ES:Euskotren:Zone:2:,,2,ES:Euskotren:StopPlace:2642:,,1,ES:Euskotren:Level:Level:0:,
ES:Euskotren:StopPlaceEntrance:2643_Entrada_E1:,,Irteeera,,"Barrio Elejalde, s/n / Forua",43.332432,-2.673421,ES:Euskotren:Zone:8:,,2,ES:Euskotren:StopPlace:2643:,,1,ES:Euskotren:Level:Level:0:,
ES:Euskotren:StopPlaceEntrance:2645_Entrada_E1:,,Irteera (Kanpokoa),,"Plaza estación, s/n bajo / Gernika-Lumo",43.314434,-2.67619,ES:Euskotren:Zone:8:,,2,ES:Euskotren:StopPlace:2645:,,1,ES:Euskotren:Level:Level:0:,
ES:Euskotren:StopPlaceEntrance:2645_Entrada_E2:,,Irteera (Geltoki eraikina),,"Plaza estación, s/n bajo / Gernika-Lumo",43.314579,-2.676147,ES:Euskotren:Zone:8:,,2,ES:Euskotren:StopPlace:2645:,,1,ES:Euskotren:Level:Level:0:,
ES:Euskotren:StopPlaceEntrance:2646_Entrada_E1:,,Irteera (Urb. Torreondo),,"Avd. Cervantes, 8 bajo / Basauri",43.239097,-2.878606,ES:Euskotren:Zone:4:,,2,ES:Euskotren:StopPlace:2646:,,1,ES:Euskotren:Level:Level:0:,
ES:Euskotren:StopPlaceEntrance:2646_Entrada_E2:,,Irteera (Av. Cervantes 6),,"Avd. Cervantes, 8 bajo / Basauri",43.239162,-2.878422,ES:Euskotren:Zone:4:,,2,ES:Euskotren:StopPlace:2646:,,1,ES:Euskotren:Level:Level:0:,
ES:Euskotren:StopPlaceEntrance:2646_Entrada_E3:,,Irteera (Av. Cervantes 51),,"Avd. Cervantes, 8 bajo / Basauri",43.240535,-2.879286,ES:Euskotren:Zone:4:,,2,ES:Euskotren:StopPlace:2646:,,1,ES:Euskotren:Level:Level:0:,
ES:Euskotren:StopPlaceEntrance:2647_Entrada_E1:,,Irteera,,"Avd. de Añorga, 12 / Donostia-San Sebastián",43.290815,-1.995051,ES:Euskotren:Zone:42:,,2,ES:Euskotren:StopPlace:2647:,,1,ES:Euskotren:Level:Level:Minus1:,
ES:Euskotren:StopPlaceEntrance:2648_Entrada_E1:,,Irteera (Sagastieder),,Plaza Sagastieder / Donostia-San Sebastián,43.313179,-1.956473,ES:Euskotren:Zone:42:,,2,ES:Euskotren:StopPlace:2648:,,2,ES:Euskotren:Level:Level:0:,
ES:Euskotren:StopPlaceEntrance:2648_Entrada_E2:,,Irteera (Zarategi),,Plaza Sagastieder / Donostia-San Sebastián,43.315543,-1.953935,ES:Euskotren:Zone:42:,,2,ES:Euskotren:StopPlace:2648:,,2,ES:Euskotren:Level:Level:0:,
ES:Euskotren:StopPlaceEntrance:2648_Entrada_E3:,,Irteera (Txara),,Plaza Sagastieder / Donostia-San Sebastián,43.314122,-1.955384,ES:Euskotren:Zone:42:,,2,ES:Euskotren:StopPlace:2648:,,1,ES:Euskotren:Level:Level:0:,
ES:Euskotren:StopPlaceEntrance:2649_Entrada_E1:,,Irteera  (Hegoaldea),,Avda. de Iparralde / Irun,43.348578,-1.787218,ES:Euskotren:Zone:43:,,2,ES:Euskotren:StopPlace:2649:,,1,ES:Euskotren:Level:Level:0:,
ES:Euskotren:StopPlaceEntrance:2649_Entrada_E2:,,Irteera  (Iparraldea),,Avda. de Iparralde / Irun,43.349157,-1.786392,ES:Euskotren:Zone:43:,,2,ES:Euskotren:StopPlace:2649:,,1,ES:Euskotren:Level:Level:0:,
ES:Euskotren:StopPlaceEntrance:2650_Entrada_E1:,,Irteera,,"Calle de José María Linazasoro, 9-11 / Mendaro",43.252161,-2.38793,ES:Euskotren:Zone:40:,,2,ES:Euskotren:StopPlace:2650:,,1,ES:Euskotren:Level:Level:0:,
ES:Euskotren:StopPlaceEntrance:2651_Entrada_E1:,,Irteera (Errotazar bidea),,Autovía del Norte / Donostia-San Sebastián,43.278971,-2.0071,ES:Euskotren:Zone:42:,,2,ES:Euskotren:StopPlace:2651:,,1,ES:Euskotren:Level:Level:1:,
ES:Euskotren:StopPlaceEntrance:2651_Entrada_E2:,,Irteera (Errekalde Etorbidea),,Autovía del Norte / Donostia-San Sebastián,43.278451,-2.007083,ES:Euskotren:Zone:42:,,2,ES:Euskotren:StopPlace:2651:,,1,ES:Euskotren:Level:Level:Minus1:,
ES:Euskotren:StopPlaceEntrance:2651_Entrada_E3:,,Irteera (Bidegorri),,Autovía del Norte / Donostia-San Sebastián,43.278751,-2.00715,ES:Euskotren:Zone:42:,,2,ES:Euskotren:StopPlace:2651:,,1,ES:Euskotren:Level:Level:Minus1:,
ES:Euskotren:StopPlaceEntrance:2652_Entrada_E1:,,Irteera,,"Barrio de San Antolín, 27 / Zamudio",43.286685,-2.874153,ES:Euskotren:Zone:2:,,2,ES:Euskotren:StopPlace:2652:,,1,ES:Euskotren:Level:Level:0:,
ES:Euskotren:StopPlaceEntrance:2653_Entrada_E1:,,Irteera (Eraikinetik),,"Calle de Erribera, 25 / Usurbil",43.268781,-2.052909,ES:Euskotren:Zone:42:,,2,ES:Euskotren:StopPlace:2653:,,2,ES:Euskotren:Level:Level:0:,
ES:Euskotren:StopPlaceEntrance:2653_Entrada_E2:,,Irteera (Eraikinaren ondotik),,"Calle de Erribera, 25 / Usurbil",43.268739,-2.052769,ES:Euskotren:Zone:42:,,2,ES:Euskotren:StopPlace:2653:,,2,ES:Euskotren:Level:Level:0:,
ES:Euskotren:StopPlaceEntrance:2653_Entrada_E3:,,Irteera (arrapalatik),,"Calle de Erribera, 25 / Usurbil",43.268678,-2.052643,ES:Euskotren:Zone:42:,,2,ES:Euskotren:StopPlace:2653:,,1,ES:Euskotren:Level:Level:0:,
ES:Euskotren:StopPlaceEntrance:2653_Entrada_E4:,,Irteera (trenbide pasagunetik),,"Calle de Erribera, 25 / Usurbil",43.268594,-2.052299,ES:Euskotren:Zone:42:,,2,ES:Euskotren:StopPlace:2653:,,2,ES:Euskotren:Level:Level:0:,
ES:Euskotren:StopPlaceEntrance:2654_Entrada_E1:,,Irteeera (Arrapala),,Carretera Madrid-Irún / Lezo,43.326746,-1.857206,ES:Euskotren:Zone:42:,,2,ES:Euskotren:StopPlace:2654:,,2,ES:Euskotren:Level:Level:1:,
ES:Euskotren:StopPlaceEntrance:2655_Entrada_E1:,,Irteera,,"Barrio de Okango, 31 / Zaldibar",43.171635,-2.547969,ES:Euskotren:Zone:7:,,2,ES:Euskotren:StopPlace:2655:,,1,ES:Euskotren:Level:Level:0:,
ES:Euskotren:StopPlaceEntrance:2656_Entrada_E1:,,Irteera,,Plaza Untzaga / Eibar,43.184642,-2.473858,ES:Euskotren:Zone:40:,,2,ES:Euskotren:StopPlace:2656:,,1,ES:Euskotren:Level:Level:0:,
ES:Euskotren:StopPlaceEntrance:2657_Entrada_E1:,,Irteera,,"Barrio de Zugastieta, 25 / Muxika",43.252113,-2.692999,ES:Euskotren:Zone:8:,,2,ES:Euskotren:StopPlace:2657:,,0,ES:Euskotren:Level:Level:0:,
ES:Euskotren:StopPlaceEntrance:2657_Entrada_E2:,,Irteera,,"Barrio de Zugastieta, 25 / Muxika",43.25191,-2.693476,ES:Euskotren:Zone:8:,,2,ES:Euskotren:StopPlace:2657:,,0,ES:Euskotren:Level:Level:0:,
ES:Euskotren:StopPlaceEntrance:2658_Entrada_E1:,,Irteera,,"Av de Pedro Muguruza, 6-8 / Elgoibar",43.217485,-2.409024,ES:Euskotren:Zone:40:,,2,ES:Euskotren:StopPlace:2658:,,1,ES:Euskotren:Level:Level:0:,
ES:Euskotren:StopPlaceEntrance:2660_Entrada_E1:,,Irteera,,"Barrio de Altamira, 9 / Busturia",43.367736,-2.69036,ES:Euskotren:Zone:8:,,2,ES:Euskotren:StopPlace:2660:,,1,ES:Euskotren:Level:Level:0:,
ES:Euskotren:StopPlaceEntrance:2661_Entrada_E1:,,Irteera,,"Calle de Oletxe, 48 / Usansolo",43.217854,-2.821601,ES:Euskotren:Zone:4:,,2,ES:Euskotren:StopPlace:2661:,,1,ES:Euskotren:Level:Level:0:,
ES:Euskotren:StopPlaceEntrance:2663_Entrada_E1:,,Irteeera (Kepa enbeita),,Avda. Pau Casals / Bilbao,43.25948,-2.900041,ES:Euskotren:Zone:3:,,2,ES:Euskotren:StopPlace:2663:,,2,ES:Euskotren:Level:Level:0:,
ES:Euskotren:StopPlaceEntrance:2663_Entrada_E2:,,Irteeera (Lozoño),,Avda. Pau Casals / Bilbao,43.258672,-2.899788,ES:Euskotren:Zone:3:,,2,ES:Euskotren:StopPlace:2663:,,2,ES:Euskotren:Level:Level:0:,
ES:Euskotren:StopPlaceEntrance:2663_Entrada_E3:,,Irteeera (Pau Casals),,Avda. Pau Casals / Bilbao,43.258627,-2.899256,ES:Euskotren:Zone:3:,,2,ES:Euskotren:StopPlace:2663:,,1,ES:Euskotren:Level:Level:0:,
ES:Euskotren:StopPlaceEntrance:2663_Entrada_E4:,,Irteeera (Langaran),,Avda. Pau Casals / Bilbao,43.2581,-2.898047,ES:Euskotren:Zone:3:,,2,ES:Euskotren:StopPlace:2663:,,2,ES:Euskotren:Level:Level:0:,
ES:Euskotren:StopPlaceEntrance:2664_Entrada_E1:,,Irteera (Eskailerak),,"Calle de Lapurdi, 2, bajo / Zarautz",43.284244,-2.171483,ES:Euskotren:Zone:41:,,2,ES:Euskotren:StopPlace:2664:,,1,ES:Euskotren:Level:Level:0:,
ES:Euskotren:StopPlaceEntrance:2665_Entrada_E1:,,Irteera (eraikinetik),,"Avda. Pablo Iglesias, 16 / Errenteria",43.311313,-1.899184,ES:Euskotren:Zone:42:,,2,ES:Euskotren:StopPlace:2665:,,1,ES:Euskotren:Level:Level:0:,
ES:Euskotren:StopPlaceEntrance:2665_Entrada_E2:,,Irteera (eraikinaren ondotik),,"Avda. Pablo Iglesias, 16 / Errenteria",43.311247,-1.899044,ES:Euskotren:Zone:42:,,2,ES:Euskotren:StopPlace:2665:,,1,ES:Euskotren:Level:Level:0:,
ES:Euskotren:StopPlaceEntrance:2666_Entrada_E1:,,Irteera,,"Calle Izelaieta, 21 / Ermua",43.185224,-2.501085,ES:Euskotren:Zone:40:,,2,ES:Euskotren:StopPlace:2666:,,1,ES:Euskotren:Level:Level:0:,
ES:Euskotren:StopPlaceEntrance:2667_Entrada_E1:,,Irteera,,"Zumalakarregi kalea, 8 / Pasaia",43.317949,-1.917547,ES:Euskotren:Zone:42:,,2,ES:Euskotren:StopPlace:2667:,,1,ES:Euskotren:Level:Level:0:,
